index,long,lat,name,info,a,b,c,d,e
0,-98.48873798735,29.425381030887,*Alamo City H-D Riverwalk,210-212-4461,111 W Crockett St,San Antonio,TX,78205,USA
1,-122.4155089817,37.806282984092,*Alcatraz H-D Fisherman's Wharf,415-776-7779,95 Tayl,San Francisco,CA,94133,USA
2,-102.2419509664,43.99202300235601,*Badlands H-D,605-279-2288,601 Main St,Wall,SD,57790,USA
3,-86.654907,46.411431,*Bald Eagle H-D,,102 E Munising Ave,Munising,MI,49862,USA
4,-106.39608500000001,31.799084999999998,*Barnett H-D Int'l Airport,915-779-3411,6701 Convair Rd El Paso Int'l Airport Concourse B3,El Paso,TX,79925,USA
5,-109.24693602129999,45.187436034902,*Beartooth Pass H-D,406-446-9856,14 N Broadway,Red Lodge,MT,59068,USA
6,-86.7766229622,36.164364963769,*Boswell's Music City H-D,615-242-7078,180 2nd Ave N,Nashville,TN,37201,USA
7,-90.06866899318001,29.955313028766998,*Bourbon Street H-D,504-293-1820,235 Bourbon St,New Orleans,LA,70130,USA
8,-111.9338519778,33.831692039966,*Buddy Stubbs H-D Cave Creek,480-595-9500,6812 East Cave Creek Rd #1,Cave Creek,AZ,85331,USA
9,-109.0649909712,44.526151986792,*Buffalo Bill H-D,307-527-7776,1137 Sheridan Ave,Cody,WY,82414,USA
10,-70.29076597653001,41.649190038442,*Cape Cod H-D Hyannis,508-778-0021,615 Main St,Hyannis,MA,02601,USA
11,-84.27283499389,35.357386004179,*Cherohala H-D,423-253-7432,1650 Cherohala Pkwy,Tellico Plains,TN,37385,USA
12,-83.31855300000001,35.47615,*Cherokee H-D,828-497-1200,935 Tsalagi Rd,Cherokee,NC,28719,USA
13,-110.76512499709999,43.479144992306004,*Chester's Jackson Hole H-D,307-739-1500,40 S Millward,Jackson,WY,83001,USA
14,-135.3128690365,59.456755975261004,*Chilkoot Pass H-D,907-983-3620,750 Broadway St,Skagway,AK,99840,USA
15,-82.247031,35.439221999999994,*Chimney Rock H-D,828-436-5100,363 Main St,Chimney Rock,NC,28720,USA
16,-79.07355797477,43.090873025357,*Clare's H-D At The Falls,905-357-2200 x1903,4945 Clifton Hill,Niagara Falls,ON,L2G 3N5,CAN
17,-80.203962,42.78712,*Clare's H-D of Port Dover,519-583-9200,334-338 Main St,Port Dover,ON,N0A 1N0,CAN
18,-80.609206,28.352319,*Cocoa Beach H-D,321-799-2221,3670 N Atlantic Ave,Cocoa Beach,FL,32931,USA
19,-103.73062900000001,44.376396,*Deadwood H-D,605-722-2675,681 Main St,Deadwood,SD,57732,USA
20,-93.732045,36.392487,*Eureka Springs H-D,479-363-6224,302 Village Cir,Eureka Springs,AR,72632,USA
21,-75.65106800000001,35.995898,*First Flight H-D,252-338-8866,1808 S Croatan Hwy,Kill Devil Hills,NC,27948,USA
22,-112.470348,34.540929,*Grand Canyon H-D Prescott,928-778-2241,138 S Montezuma,Prescott,AZ,86303,USA
23,-111.75890700000001,34.87149,*Grand Canyon H-D Sedona,928-204-0020,320 N Hwy 89A #1,Sedona,AZ,86336,USA
24,-117.911332,33.805021,*H-D of Anaheim,714-399-0080,321 W Katella Ave,Anaheim,CA,92802,USA
25,-73.96941899321,40.760520966723,*H-D of New York City,212-355-3003,686 Lexington Ave,New York,NY,10022,USA
26,-77.017263,38.783709,*H-D of Washington DC Oxon Hill,301-749-6644,185 Waterfront St,Oxon Hill,MD,20745,USA
27,-103.575784,43.931636,*Hill City H-D,605-574-3636,261 Main St,Hill City,SD,57745,USA
28,-83.51088100000001,35.71372,*Hillbilly H-D,865-430-1602,530 Parkway,Gatlinburg,TN,37738,USA
29,-157.837094,21.282871,*Honolulu H-D Hilton Hawaiian Village,808-973-4630,2005 Kalia Rd,Honolulu,HI,96815,USA
30,-87.90222,42.948009000000006,*House of H-D Int'l Airport,414-747-5384,5300 S Howell Ave Mitchell Int'l Airport WC-1,Milwaukee,WI,53207,USA
31,-131.644871,55.340126,*Inside Passage H-D,907-225-4625,34 Front St #204,Ketchikan,AK,99901,USA
32,-156.676489,20.87098,*Lahaina H-D,808-667-2800,602 Front St,Lahaina,HI,96761,USA
33,-88.43388,42.591522,*Lake Geneva H-D,262-729-4078,704 Main St,Lake Geneva,WI,53147,USA
34,-115.172379,36.113372999999996,*Las Vegas H-D Ballys Hotel,702-893-7773,3645 S Las Vegas Blvd,Las Vegas,NV,89109,USA
35,-115.1425999961,36.170130036771,*Las Vegas H-D Freemont,702-383-1010,328 E Freemont St,Las Vegas,NV,89101,USA
36,-115.16823000000001,36.117627,*Las Vegas H-D High Roller,702-732-3133,3545 S Las Vegas Blvd,Las Vegas,NV,89109,USA
37,-115.1720700133,36.101849963888,*Las Vegas H-D MGM Grand Hotel,702-795-7073,3799 S Las Vegas Blvd,Las Vegas,NV,89109,USA
38,-115.14858501030001,36.083700964227,*Las Vegas H-D McCarran Airport,702-736-9493,5757 Wayne Newton Blvd Mccarran Airport,Las Vegas,NV,89111,USA
39,-114.349049,34.470991999999995,*London Bridge H-D,928-302-1812,1425 N McCulloch Blvd Unit J,Lake Havasu City,AZ,86403,USA
40,-86.373517,35.283115,*Lynchburg H-D,931-759-4430,6 Short St,Lynchburg,TN,37352,USA
41,-78.882272,33.717434999999995,*MB H-D at Broadway at the Beach,843-293-5555,1316 Celebrity Cir #V-172,Myrtle Beach,SC,29577,USA
42,-73.71194399999999,43.412321999999996,*McDermotts H-D,518-668-4575,2183 US 9,Lake George,NY,12845,USA
43,-121.900231,36.616417,*Monterey Bay H-D,831-731-5067,700 Cannery Row #B,Monterey,CA,93940,USA
44,-148.89830700000002,63.74631,*Mt McKinley H-D,907-683-4275,238.6 Parks Hwy,Denali Park,AK,99755,USA
45,-122.33976499999999,47.604299,*Mt Rainier H-D,206-462-3100,1001 Alaskan Way,Seattle,WA,98104,USA
46,-78.959214,33.750690999999996,*Myrtle Beach H-D Tanger Outlet Center,843-236-5555,4628 Factory Stores Blvd Suite B-240,Myrtle Beach,SC,29579,USA
47,-75.622535,35.953539,*Nags Head H-D,252-255-5922,4104 S Virginia Dare Tr #22,Nags Head,NC,27959,USA
48,-81.519774,28.369906,*Orlando H-D Downtown Disney,407-938-0522,1502 E Buena Vista Dr #B1,Lake Buena Vista,FL,32830,USA
49,-81.47122399999999,28.449222999999996,*Orlando H-D Gear Store,407-351-3302,8000 International Dr,Orlando,FL,32819,USA
50,-81.30666797049,28.431182038038003,*Orlando H-D Int'l Airport,407-825-3533,9303 Jeff Fuqua Blvd #2969,Orlando,FL,32827,USA
51,-81.805452,24.559541,*Peterson's Key West H-D,305-517-6562,121 Duval St,Key West,FL,33040,USA
52,-89.793545,43.59637,*Reel Brothers Dells H-D,608-253-2252,524 Wisconsin Dells Pkwy N,Wisconsin Dells,WI,53965,USA
53,-119.814995,39.530882,*Reno H-D Silver Legacy,775-323-2453,407 N Virginia St 2nd Floor,Reno,NV,89501,USA
54,-117.171502,32.708828000000004,*San Diego H-D Seaport Village,619-234-5780,849 W Harbor Dr,San Diego,CA,92101,USA
55,-81.093851,32.082493,*Savannah H-D on River St,912-231-8000,221 W River St,Savannah,GA,31401,USA
56,-83.610179,35.985640000000004,*Smoky Mountain H-D Kodak,865-225-0050,3607 Outdoor Sportsman Pl,Kodak,TN,37738,USA
57,-103.50824899999999,44.413607,*Sturgis H-D,605-347-2056,1040 Junction Ave,Sturgis,SD,57785,USA
58,-134.40463,58.299393,*Taku H-D,888-586-4100,230 S Franklin St #103,Juneau,AK,99801,USA
59,-84.469338,33.888742,*Tomahawk H-D,678-401-8333,455 Legends Place SE #854,Atlanta,GA,30339,USA
60,-110.065251,31.712178,*Tombstone H-D,520-457-1482,526 E Allen St,Tombstone,AZ,85638,USA
61,-93.24351999999999,44.855356,*Twin Cities H-D Mall of America,952-854-1225,344 W Market,Bloomington,MN,55425,USA
62,-84.06683597713,35.547643974422996,*US 129 Dragon H-D,865-856-5942,5908 Calderwood Hwy,Tallassee,TN,37878,USA
63,-75.975193,36.847719,*Virginia Beach H-D,757-425-2458,1908 Atlantic Ave,Virginia Beach,VA,23451,USA
64,-90.061548,29.95782,*VooDoo H-D,504-561-0263,812 Decatur St,New Orleans,LA,70116,USA
65,-157.8297889977,21.279254006221002,*Waikiki H-D Royal Hawaiian,808-791-7880,2201 Kalakaua Ave 2nd Floor Bldg A #202,Honolulu,HI,96815,USA
66,-88.115734,41.948345,*Wild One H-D,630-834-6571,152 Stratford Dr,Bloomingdale,IL,60108,USA
67,-87.900982,41.976359,*Windy City H-D O'Hare Int'l Airport,773-686-4886,11601 W Touhy Ave,Chicago,IL,60666,USA
68,-84.726474,45.778782,*Zips Mackinaw City H-D,231-436-5331,314 S Huron Ave,Mackinaw City,MI,49701,USA
69,-76.733142,39.983447,1st Capital H-D,717-854-3214,100 Arsenal Rd,York,PA,17404,USA
70,-83.374879,42.655243,ABC H-D,248-674-3175,4405 MI-59,Waterford,MI,48328,USA
71,-83.0136920046,39.960325984284,AD Farrow Co H-D,614-228-6353,491 W Broad St,Columbus,OH,43215,USA
72,-82.92631999999999,40.26396,AD Farrow H-D Shop at North Star,740-965-9900,7754 E US-36,Sunbury,OH,43074,USA
73,-89.07563600689001,36.427938016131,Abernathy's H-D,866-452-2775,1703 W Main St,Union City,TN,38261,USA
74,-78.13136300000001,48.559298,Abitibi H-D,819-732-4677,131 Route 109 Sud,Amos,QC,J9T 3A2,CAN
75,-94.10116799174999,33.449869025497996,Adam Smith's Texarkana H-D,903-832-4366,802 Walton Dr,Texarkana,TX,75501,USA
76,-81.530266,30.323915999999997,Adamec H-D at Regency,904-641-3735,10399 Atlantic Blvd,Jacksonville,FL,32225,USA
77,-81.57358,30.221131,Adamec H-D of Baymeadows,904-493-1931,8909 Baymeadows Rd,Jacksonville,FL,32256,USA
78,-81.71234001405,30.189550006761998,Adamec H-D of Orange Park,904-215-1931,1520 Wells Rd,Orange Park,FL,32073,USA
79,-74.212762,43.047779,Adirondack H-D,518-883-1128,106 Bellen Rd,Broadalbin,NY,12025,USA
80,-81.4833640214,40.501783015206,Adventure H-D,330-364-6519,1465 OH39 NW,Dover,OH,44622,USA
81,-90.858191,44.311323,Al Muth H-D Sales,715-284-4725,N6630 CR-A,Black River Falls,WI,54615,USA
82,-76.78826996125,38.54052898474001,All American H-D,301-274-5000,8126 Leonardtown Rd,Hughesville,MD,20637,USA
83,-80.34059001132,26.122940015047003,Alligator Alley H-D,954-414-4135,201 International Pkwy,Sunrise,FL,33325,USA
84,-97.06274399533001,33.153392979875,American Eagle H-D,888-787-8691,5920 S I-35 Service Rd,Corinth,TX,76210,USA
85,-71.74950001761,42.484070006757,American H-D Leominster,978-537-6919,1437 SR-12,Leominster,MA,01453,USA
86,-78.84828996844,43.050234038381994,American H-D North Tonawanda,716-692-7200,1149 Erie Ave,North Tonawanda,NY,14120,USA
87,-88.21907398290001,40.132269999011996,Andrae's H-D,217-328-2092,2010 N Lincoln Ave,Urbana,IL,61801,USA
88,-97.06818502396,47.948280964046,Andy's H-D,701-775-6098,2756 N Washington St,Grand Forks,ND,58203,USA
89,-118.1630929838,34.678675979375,Antelope Valley H-D,661-948-5959,1759 W Ave J-12,Lancaster,CA,93534,USA
90,-95.39625501260001,45.84833501838101,Apol's H-D,320-763-9800,1515 42nd Ave,Alexandria,MN,56308,USA
91,-95.23898201063,45.015987977384995,Apol's H-D Raymond,320-967-4511,102 S Cofield St,Raymond,MN,56282,USA
92,-77.05201702192,40.238721007481,Appalachian H-D,717-766-9366,6695 Carlisle Pike,Mechanicsburg,PA,17050,USA
93,-87.27876400575,36.504424978047,Appleton H-D,931-648-1607,2501 US-41A Byp,Clarksville,TN,37043,USA
94,-88.48739697597,44.285506037995006,Appleton H-D,920-757-1651,5322 Clairemont Dr,Appleton,WI,54913,USA
95,-77.681507,42.374266999999996,Arkport H-D,607-295-7426,7611 Industrial Park Rd,Hornell,NY,14843,USA
96,-112.2370900399,33.63393000327,Arrowhead H-D,623-247-5542,16130 N Arrowhead Fountains Center Dr,Peoria,AZ,85382,USA
97,-82.09866302086999,39.352668011561,Athens H-D,740-592-1692,165 Columbus Rd,Athens,OH,45701,USA
98,-74.53164696693001,39.448519013822,Atlantic County H-D,609-652-5555,219 E White Horse Pike,Galloway,NJ,08205,USA
99,-105.204178,39.703538,Avalanche H-D,303-238-0425,18425 W Colfax Ave,Golden,CO,80401,USA
100,-80.33173101022,39.263742975890004,B & B H-D,304-623-0484,100 Alexander Ave,Nutter Fort,WV,26301,USA
101,-110.6051899865,49.973806003107995,Badlands H-D,403-527-9235,1923 2nd Ave,Dunmore,AB,T1B 0K3,CAN
102,-75.23142700083,41.552138999104,Baer Sport Center,570-253-2000,330 Grandview Ave,Honesdale,PA,18431,USA
103,-119.08041601059999,35.44067999348,Bakersfield H-D,661-325-3644,35089 Merle Haggard Dr,Bakersfield,CA,93308,USA
104,-87.43151295930001,46.547991000115005,Bald Eagle H-D,906-228-5330,2080 US 41 W,Marquette,MI,49855,USA
105,-75.08990996517,39.890120001509,Barb's H-D,856-456-4141,926 N Black Horse Pike,Mt Ephraim,NJ,08059,USA
106,-88.72546004131,41.936227977275,Barbed Wire H-D,815-756-4558,969 Peace Rd,DeKalb,IL,60115,USA
107,-122.66712801530001,49.162369966506006,Barnes H-D,604-534-6044,8859 201 St,Langley,BC,V2Y 0C8,CAN
108,-120.4028510022,50.65979998558699,Barnes H-D Kamloops,250-828-0622,1465 Iron Mask Rd,Kamloops,BC,V2C 5N6,CAN
109,-123.54048402040002,48.453586008399,Barnes H-D1,250-475-1345,2940 Ed Nixon Tce,Victoria,BC,V9B 0B2,CAN
110,-106.3301980029,31.742586996406,Barnett H-D,800-453-1513,8272 Gateway Blvd E,El Paso,TX,79907,USA
111,-106.7931499611,32.288660025224,Barnett's Las Cruces H-D,575-541-1440,2600 Lakeside Dr,Las Cruces,NM,88005,USA
112,-79.68823998235,44.34067999944,Barrie H-D,705-728-5322,311 Bryne Dr,Barrie,ON,L4N 8V4,CAN
113,-118.4450649842,33.987341970205,Bartels H-D,310-823-1112,4141 Lincoln Blvd,Marina Del Rey,CA,90292,USA
114,-95.93565797433,36.760173020884,Bartlesville Cycle Sports,918-336-3800,231 NE Washington Blvd,Bartlesville,OK,74006,USA
115,-119.74780803540001,39.186538020148,Battle Born H-D,775-882-7433,2900 Research Way,Carson City,NV,89706,USA
116,-85.18291203305,42.26093603298,Battle Creek H-D,269-979-2233,5738 Beckley Rd,Battle Creek,MI,49015,USA
117,-77.1822999604,39.847059985622,Battlefield H-D,717-337-9005,21 Cavalry Field Rd,Gettysburg,PA,17325,USA
118,-82.28821498341,38.87809404172,Baxter H-D,740-446-6336,1699 Kerr Rd,Bidwell,OH,45614,USA
119,-76.33012401871,36.82121599093,Bayside H-D,757-397-5550,2211 Frederick Blvd,Portsmouth,VA,23704,USA
120,-78.42599996365,33.957849992439,Beach House H-D,910-575-9997,4919 Ocean Hwy,Shallotte,NC,28470,USA
121,-108.59099996270001,45.737800011411,Beartooth H-D,406-252-2888,6900 S Frontage Rd,Billings,MT,59101,USA
122,-109.5666239876,40.438336031511,Beers H-D,435-789-5196,2029 W US40,Vernal,UT,84078,USA
123,-83.98376201279001,41.021810034289,Ben Breece H-D,419-523-4274,6388 US 224,Ottawa,OH,45875,USA
124,-85.46160000376,40.220461031422,Benson Motorcycles,765-288-1817,6410 W Mcgalliard,Muncie,IN,47304,USA
125,-93.35576198995001,43.685945989564,Bergdale H-D,507-373-5236,905 Plaza St,Albert Lea,MN,56007,USA
126,-74.07371099106,40.892690001055,Bergen County H-D,201-843-6930,124 Essex St,Rochelle Park,NJ,07662,USA
127,-82.67235802486,27.821261035278003,Bert's Barracuda H-D,727-527-9672,2805 54th Ave N,St. Petersburg,FL,33714,USA
128,-82.18016998841999,27.000896008685004,Bert's Black Widow H-D,941-883-8000,2224 El Jobean Rd,Port Charlotte,FL,33948,USA
129,-93.61726596951,41.650569029152,Big Barn H-D,515-265-4444,81 NW 49th Pl,Des Moines,IA,50313,USA
130,-155.9955529868,19.642381975427,Big Island H-D,808-217-8560,75-5633 Palani Rd,Kailua Kona,HI,96740,USA
131,-70.32720001414,43.688779994845,Big Moose H-D,207-797-6061,375 Riverside St,Portland,ME,04103,USA
132,-111.23323899999998,47.493167,Big Sky H-D,406-205-4807,4258 10th Ave S,Great Falls,MT,59405,USA
133,-101.4870289899,32.248614979906996,Big Spring H-D,432-263-2322,908 W 3rd St,Big Spring,TX,79720,USA
134,-85.35654902458,32.641674019396,Big Swamp H-D Shop,334-364-0400,1201 Fox Run Pkwy,Opelika,AL,36801,USA
135,-117.186857,33.142066,Biggs H-D,800-442-7539,1040 Los Vallecitos Blvd #113,San Marcos,CA,92069,USA
136,-81.05493502691,36.951302038505,Black Bear H-D,276-228-9000,430 Lithia Rd,Wytheville,VA,24382,USA
137,-77.84350102766999,35.979799982159996,Black Cat H-D,252-446-7292,928 N Winstead Ave,Rocky Mount,NC,27804,USA
138,-88.96980199031,37.745657013729,Black Diamond H-D,618-997-4577,2400 Williamson Cnty Pkwy,Marion,IL,62959,USA
139,-103.2684399839,44.114210028201,Black Hills H-D,800-727-2482,2820 Harley Dr,Rapid City,SD,57702,USA
140,-79.694641,34.272877,Black Jack H-D,843-669-9961,2691 Alex Lee Blvd,Florence,SC,29506,USA
141,-82.45144198648,38.419325994327004,Black Sheep H-D,304-523-1340,408 4th St,Huntington,WV,25701,USA
142,-82.15485001914,36.625305013731,Black Wolf H-D,276-644-9653,1061 Old Abingdon Rd,Bristol,VA,24201,USA
143,-80.316101,43.417055,Blackbridge H-D,519-893-0493,310 Holiday Inn Dr,Cambridge,ON,N3C 3X4,CAN
144,-92.04301798716,32.493028007447,Bleu Bayou H-D,318-343-1650,6200 Frontage Rd,Monroe,LA,71202,USA
145,-81.30176698789,35.709522999823,Blue Ridge H-D,828-327-3030,2002 13th Ave Dr SE,Hickory,NC,28602,USA
146,-85.54164198227,38.225321983918,Bluegrass H-D,502-244-8095,11701 Gateworth Way,Louisville,KY,40299,USA
147,-88.98907701484,42.721080975607,Boardtracker H-D,608-757-0880,3223 N Pontiac Dr,Janesville,WI,53545,USA
148,-114.58971499459999,32.687910022214,Bobby's Territorial H-D,928-782-1931,2550 E Gila Ridge Rd,Yuma,AZ,85365,USA
149,-84.14836800657,35.908395973965,Bootlegger H-D,865-671-2454,605 Lovell Rd,Knoxville,TN,37932,USA
150,-93.73000902123002,32.560300994664004,Bossier City H-D,318-549-1571,2225 Autoplex Dr,Bossier City,LA,71111,USA
151,-71.02309201844,42.431553024798,Boston H-D,617-389-8888,649 Squire Rd,Revere,MA,02151,USA
152,-85.513397,36.137671999999995,Boswell's Country Roads H-D,931-526-3139,1424 Interstate Dr,Cookeville,TN,38501,USA
153,-86.74337299999999,36.149044,Boswell's H-D,800-475-0737,401 Fesslers Ln,Nashville,TN,37210,USA
154,-86.68918599999999,36.305211,Boswell's Ring of Fire H-D,615-855-1001,2200 Gallatin Pike N,Madison,TN,37115,USA
155,-90.9065869823,38.442391986027005,Bourbeuse Valley H-D,636-742-2707,1418 Hwy AT,Villa Ridge,MO,63089,USA
156,-74.09731996245,45.267154974862,Boutin H-D,450-373-6565,2000 boul Hebert,Valleyfield,QC,J6S 5T7,CAN
157,-82.344269,27.9439,Brandon H-D,813-740-9898,9841 E Adamo Dr,Tampa,FL,33619,USA
158,-85.83896803669,40.815802970901,Brandt's H-D,260-563-6443,1400 N Cass St,Wabash,IN,46992,USA
159,-85.55347697809,40.550981014966,Brandts I-69 H-D,765-664-1331,6333 E Steltzer Dr,Marion,IN,46953,USA
160,-74.89800000563001,40.168129960075,Brian's H-D,215-752-9400,600 S Flowers Mill Rd,Langhorne,PA,19047,USA
161,-83.75918903388,42.516203038393996,Brighton H-D,810-225-2915,5942 Whitmore Lake Rd,Brighton,MI,48116,USA
162,-72.84332002513,41.278579998761,Brothers' H-D,203-315-4759,557 W Main St,Branford,CT,06405,USA
163,-79.77104396559,43.600305989384005,Brown's H-D,905-858-0966,2815 Argentia Rd,Mississauga,ON,L5N 8G6,CAN
164,-81.13362500444,29.338057022540998,Bruce Rossmeyer's Daytona H-D,386-671-7100,1637 N US 1,Ormond Beach,FL,32174,USA
165,-81.01120202802,29.225532989948,Bruce Rossmeyer's Daytona H-D on Main Street,386-253-2453,510 Main St,Daytona Beach,FL,32118,USA
166,-80.94721600413,29.013834027572997,Bruce Rossmeyer's New Smyrna H-D,386-409-3034,1899 SR 44,New Smyrna Beach,FL,32168,USA
167,-73.602494,42.75885,Brunswick H-D,518-279-1145,1130 Hoosick Rd NY 7,Troy,NY,12180,USA
168,-84.19852104038,39.835391035303005,Buckeye H-D,800-783-2222,7220 N Dixie Dr,Dayton,OH,45414,USA
169,-83.9436069969,39.669723976403,Buckminns H-D,937-376-3344,1213 Cincinnati,Xenia,OH,45385,USA
170,-87.49387096613,37.991413995623,Bud's H-D Sales,812-473-2837,4700 E Morgan Ave,Evansville,IN,47715,USA
171,-112.14738800190001,33.865187969058,Buddy Stubbs Anthem H-D,623-465-1122,41715 N 41st Dr,Anthem,AZ,85086,USA
172,-112.0364039763,33.611418977378996,Buddy Stubbs Arizona H-D,602-971-3400,13850 N Cave Creek Rd,Phoenix,AZ,85022,USA
173,-100.75637002469999,41.110779996961,Budke's H-D,308-532-4339,695 Halligan Dr,North Platte,NE,69101,USA
174,-78.76671996898001,42.788280034437,Buffalo H-D,716-972-1556,140 Mid County Dr,Orchard Park,NY,14127,USA
175,-77.48185199685001,38.751330999657,Bull Run H-D,703-631-3750,9321 Center St,Manassas,VA,20110,USA
176,-89.69022396951,35.035888971759995,Bumpus H-D Shop of Collierville,901-316-1121,325 S Byhalia Rd,Collierville,TN,38017,USA
177,-88.84157798252,35.667148958891,Bumpus H-D of Jackson,888-477-2212,326 Carriage House Dr,Jackson,TN,38305,USA
178,-89.83558201230998,35.184805970637996,Bumpus H-D of Memphis,901-372-1121,2160 Whitten Rd,Memphis,TN,38133,USA
179,-86.43451801501,35.887185987085,Bumpus H-D of Murfreesboro,615-849-8025,2250 NW Broad St,Murfreesboro,TN,37129,USA
180,-72.50860196538,46.274979002773,Bécancour H-D,819-233-3303,4350 Arsenault,Bécancour,QC,G9H 1V8,CAN
181,-93.29100801609002,41.003966974094,C & C H-D,641-774-7494,130 E Lincoln,Chariton,IA,50049,USA
182,-92.10449899545999,30.246586007997,Cajun H-D,877-298-9732,724 I-10 S Frontage Rd,Scott,LA,70583,USA
183,-114.003240019,51.095443032681,Calgary H-D,403-250-3141,2475 Pegasus Rd NE,Calgary,AB,T2E 8C3,CAN
184,-98.63054403103001,29.451637007296,Caliente H-D,210-681-2254,7230 NW I-410-Loop,San Antonio,TX,78245,USA
185,-118.3032349683,33.789574988186004,California H-D,310-539-3366,1517 W Pacific Coast Hwy,Harbor City,CA,90710,USA
186,-87.50936801545001,41.523588979616,Calumet H-D,219-934-6366,10350 Calumet Ave,Munster,IN,46321,USA
187,-87.41568901576001,39.419963965192,Cannonball H-D,812-232-7821,3912 S US-41,Terre Haute,IN,47802,USA
188,-70.58946398085999,41.690634023398,Cape Cod H-D,508-563-7387,750 MacArthur Blvd,Pocasset,MA,02559,USA
189,-84.65075296349,42.680330006405,Capitol H-D,517-646-2345,9550 Woodlane Dr,Dimondale,MI,48821,USA
190,-81.22172098606,41.311919018626,Carlton H-D,330-274-3141,11771 SR 44,Mantua,OH,44255,USA
191,-77.83929096534,34.257145961746,Carolina Coast H-D,910-791-9997,6620 Market St,Wilmington,NC,28405,USA
192,-72.57685102522,45.859740022569,Carrier H-D Drummondville,819-395-2464,176 Boul Industriel,Drummondville,QC,J0C 1K0,CAN
193,-72.07900500000001,45.310261,Carrier H-D Sherbrooke,819-563-0707,9460 Boul Bourque,Sherbrooke,QC,J1N 0G2,CAN
194,-72.97273602336,45.643578032031,Carrier H-D St Hyacinthe,450-253-6686,5630 rue Martineau,St Hyacinthe,QC,J2R 1T6,CAN
195,-92.72239499999999,43.101157,Cedar River H-D Shop,641-228-2192,1750 Cedar View Rd,Charles City,IA,50616,USA
196,-82.72357103414001,39.994873004034,Centennial Park H-D,740-964-2205,12477 E Broad St,Pataskala,OH,43062,USA
197,-68.90041301026,44.805112034082,Central Maine H-D,888-560-2145,2387 US 2,Hermon,ME,04401,USA
198,-97.69169602543,30.53910696879,Central Texas H-D Round Rock,512-652-1200,2801 N IH-35,Round Rock,TX,78664,USA
199,-104.56325300030001,33.394559025763996,Champion H-D,575-624-0151,2801 W 2nd St,Roswell,NM,88201,USA
200,-111.9615479651,33.305059997364005,Chandler H-D,480-496-6800,6895 W Chandler Blvd,Chandler,AZ,85226,USA
201,-84.94184195995,32.564045023173,Chattahoochee H-D,706-324-4294,3230 Williams Rd,Columbus,GA,31909,USA
202,-112.4512189999,42.901301030069,Chester's Eagle Rock H-D,208-237-7433,1444 N Yellowstone Ave,Pocatello,ID,83201,USA
203,-112.0493000373,43.493460025638,Chester's Grand Teton H-D,208-523-1464,848 Houston St,Idaho Falls,ID,83402,USA
204,-119.78262503629999,39.515199987217,Chester's Reno H-D,775-329-2913,2315 Market St,Reno,NV,89502,USA
205,-87.85135796293001,41.565870987251,Chi-Town H-D,708-623-6000,17801 S La Grange,Tinley Park,IL,60487,USA
206,-87.82304297201,42.106342976911996,Chicago H-D,888-636-6413,2929 Patriot Blvd,Glenview,IL,60026,USA
207,-93.79821700975,41.02374298498,Chipp's H-D Shop,641-342-7494,1301 Southwest Blvd,Osceola,IA,50213,USA
208,-88.96682197228,40.459266984835,Chuck's H-D,309-662-1648,2027 Ireland Grove Rd,Bloomington,IL,61704,USA
209,-88.67581503465,32.362340977415,Chunky River H-D,601-482-4131,584 Bonita Lake Dr,Meridian,MS,39301,USA
210,-96.84771196916,39.002593969926,City Cycle Sales H-D,785-238-3411,1021 Golden Belt Blvd,Junction City,KS,66441,USA
211,-88.02919797599002,42.146350974217,City Limits H-D,847-358-2112,2015 N Rand Rd,Palatine,IL,60074,USA
212,-79.15635298936999,43.156802980228996,Clare's H-D of Niagara,905-684-4647,590 York Rd,Niagara on the Lake,ON,L0S 1J0,CAN
213,-75.99331600000001,40.390233,Classic H-D,610-916-7777,983 James Dr,Leesport,PA,19533,USA
214,-85.65582797862,44.694335963577004,Classic Motor Sports H-D,231-943-9344,3939 S Blue Star Dr,Traverse City,MI,49685,USA
215,-90.24731199257,41.815302008762,Clinton H-D,563-242-1901,2519 Lincolnway,Clinton,IA,52732,USA
216,-83.26639498583,36.243540002033,Colboch H-D,423-586-5343,1830 N Davy Crockett Pky,Morristown,TN,37814,USA
217,-81.21897901408,37.258311035111,Cole H-D,304-324-8116,1804 Bland St,Bluefield,WV,24701,USA
218,-77.63332203961,36.424343017861,Collier H-D,252-537-6493,316 Premier Blvd,Roanoke Rapids,NC,27870,USA
219,-77.37059002742,37.250540005043,Colonial H-D,804-861-4700,1701 Temple Pkwy,Prince George,VA,23875,USA
220,-122.65743300000001,45.695267,Columbia Motorcycle H-D,360-695-8831,1314 NE 102nd St,Vancouver,WA,98686,USA
221,-88.18118995986,41.531822020187,Conrad's H-D,815-725-2000,19356 NE Frontage Rd,Shorewood,IL,60404,USA
222,-112.4759819917,45.962423030287,Copper Canyon H-D,406-565-4708,34 Olympic Way,Butte,MT,59701,USA
223,-117.1018609777,32.654158025979,Coronado Beach H-D,619-477-4477,3201 Hoover Ave,National City,CA,91950,USA
224,-97.46136702597,27.758153015747,Corpus Christi H-D,361-854-3146,502 South Padre Island Dr,Corpus Christi,TX,78405,USA
225,-97.79409999959,30.143560012802,Cowboy H-D of Austin,512-448-4294,10917 South IH 35,Austin,TX,78747,USA
226,-94.13509299046999,30.066122040152003,Cowboy H-D of Beaumont,855-550-7433,1150 IH-10 S,Beaumont,TX,77707,USA
227,-98.3817330189,29.539020024240003,Cowboy's Alamo City H-D,210-646-0499,11005 N I-35,San Antonio,TX,78233,USA
228,-79.44400096311999,35.248657967895,Cox's Double Eagle H-D,910-295-9033,7540 US501 S,Pinehurst,NC,28370,USA
229,-79.82278696261,35.614732978865,Cox's H-D,336-629-2415,2795 NC 134,Asheboro,NC,27205,USA
230,-80.97174899651999,34.930766997858,Cox's H-D of Rock Hill,803-327-1183,1178 Galleria Blvd,Rock Hill,SC,29730,USA
231,-88.95755996927,39.921983974054,Coziahr H-D,217-877-7115,150 W Marion Ave,Forsyth,IL,62535,USA
232,-81.20055198669,36.14981599152,Crossroads H-D,336-667-1003,1921 Hwy 421 Bus,Wilkesboro,NC,28697,USA
233,-93.79999799653,45.050139036028995,Crow River H-D,763-972-6282,822 Babcock Blvd W,Delano,MN,55328,USA
234,-112.8199820034,49.697668980807,Crowsnest Trail H-D,403-320-1903,1505 - 2nd Ave S,Lethbridge,AB,T1J 0E8,CAN
235,-82.57924295961,28.836318980902,Crystal H-D,352-563-9900,1785 S Suncoast Blvd,Homosassa,FL,34448,USA
236,-157.90165501639999,21.336201997472998,Cycle City H-D,808-377-4698,600 Pu'uloa Rd,Honolulu,HI,96819,USA
237,-122.8279100172,42.283453010022,D & S H-D,541-535-5515,3846 S Pacific Hwy,Medford,OR,97501,USA
238,-96.645942,32.855877,Dallas H-D,972-270-3962,1334 W Centerville Rd,Garland,TX,75041,USA
239,-94.0102990251,44.18564999476,Dave's River Valley H-D,507-345-6077,1200 N River Dr,Mankato,MN,56001,USA
240,-105.45395501879999,44.294429998844,Deluxe H-D of Gillette,307-687-2001,3300 Conestoga Dr,Gillette,WY,82718,USA
241,-104.380155,44.405483000000004,Deluxe H-D of Sundance,307-283-2001,220 E Main St,Sundance,WY,82729,USA
242,-149.3126040045,61.568457037209996,Denali H-D,907-373-3366,1497 S Hyer Rd,Wasilla,AK,99654,USA
243,-93.36161297746,37.180434018373,Denney's H-D,417-882-0100,3980 W Sunshine,Springfield,MO,65807,USA
244,-111.84031303969999,33.398033995180995,Desert Wind H-D,480-894-0404,922 S Country Club Dr,Mesa,AZ,85210,USA
245,-98.27098603360001,26.198419975116,Desperado H-D,956-687-4646,1201 S Bentsen Rd,McAllen,TX,78501,USA
246,-122.70717297680001,47.651607021688996,Destination H-D Silverdale,360-698-3700,9625 Provost Rd NW,Silverdale,WA,98383,USA
247,-122.39740801040001,47.243065014481,Destination H-D Tacoma,253-922-3700,2302 Pacific Highway E,Tacoma,WA,98424,USA
248,-96.187225,41.293644,Dillon Brothers H-D,402-289-5556,3838 N HWS Cleveland Blvd,Omaha,NE,68116,USA
249,-96.46558997221001,41.451630005612,Dillon Brothers H-D Shop,402-721-2007,2440 E 23rd St,Fremont,NE,68025,USA
250,-77.16037399135,39.169960040599,District H-D,301-948-4581,7830 Airpark Rd,,MD,20879,USA
251,-90.40655197575,38.56727999635,Doc's H-D,314-965-0166,930 S Kirkwood Rd,Kirkwood,MO,63122,USA
252,-88.37492398917,44.705220032483,Doc's H-D Shawano Co,715-758-9080,W2709 SR 29,Bonduel,WI,54107,USA
253,-100.01808595840001,37.729613967239,Dodge City H-D,620-227-6351,1312 S 2nd Ave,Dodge City,KS,67801,USA
254,-99.31498602031999,38.901661019772,Doerflers' H-D,785-625-2022,1100 E 43rd St,Hays,KS,67601,USA
255,-79.43568401969,36.062704967334,Down Home H-D,336-227-1261,2215 Hanford Rd,Burlington,NC,27215,USA
256,-78.75712503679,41.127484962344,Du Bois H-D,814-371-5750,101 W DuBois Ave,Du Bois,PA,15801,USA
257,-106.5457180235,35.08697499521,Duke City H-D,505-275-3853,8603 Lomas Blvd,Albuquerque,NM,87111,USA
258,-82.083708,42.38252,Duke's H-D,519-354-0650,5 Classic Car Dr,Blenheim,ON,N0P 1A0,CAN
259,-107.87238797170001,37.244027014821,Durango H-D,970-259-0778,750 S Camino Del Rio,Durango,CO,81301,USA
260,-121.2869569659,37.832222962751004,Eagle's Nest H-D,209-941-0420,13900 Harlan Rd,Lathrop,CA,95330,USA
261,-81.21488596312,28.546462962403,East Orlando H-D,407-447-7400,11898 Lake Underhill Rd,Orlando,FL,32825,USA
262,-72.69930099137,40.925256963818995,Eastern H-D,631-727-4700,1570 Old Country Rd RT-58,Riverhead,NY,11901,USA
263,-84.28437897004001,39.105691965668996,Eastgate H-D,513-528-1400,699 Old OH-74,Cincinnati,OH,45245,USA
264,-122.15613300000001,47.630790000000005,Eastside H-D,425-702-2000,2350 136th Pl NE,Bellevue,WA,98005,USA
265,-110.01588999999998,53.278342,Edge H-D,780-875-3373,5402 44th St,Lloydminster,AB,T9V 0B4,CAN
266,-76.20406396687,39.648627983406,Eisenhauer's Chesapeake H-D,410-457-4541,4600 Thunder Ct,Darlington,MD,21034,USA
267,-77.08036595955,41.761643998324,Eisenhauer?s Tioga County H-D,570-659-5000,2911 S Main St,Mansfield,PA,16933,USA
268,-116.97285401629999,32.789305988699,El Cajon H-D,619-444-1123,621 El Cajon Blvd,El Cajon,CA,92020,USA
269,-66.1128390301,45.243540974333,Eldridge's,506-635-1223,1230 Fairville Blvd,Saint John,NB,E2M 5T7,CAN
270,-122.31005701229999,47.828501975163,Emerald City H-D,425-921-1100,5711 188th St SW,Lynnwood,WA,98037,USA
271,-86.63883796892999,30.445840023458,Emerald Coast H-D,850-862-4706,788 Beal Pkwy NE,Fort Walton Beach,FL,32547,USA
272,-73.79337999969,40.897972024977,Empire H-D,914-632-6743,8 Industrial Ln,New Rochelle,NY,10805,USA
273,-94.204148,43.083269,Ernie's H-D,515-295-7951,2701 E US 18,Algona,IA,50511,USA
274,-76.015462,43.86391,FX Caprara H-D,315-583-6177,17890 Goodnough St,Adams Center,NY,13606,USA
275,-84.01831397785999,33.658009031787,Falcons Fury H-D,770-979-7999,900 Dogwood Dr SE,Conyers,GA,30012,USA
276,-93.30427698791,44.319361969827995,Faribault H-D,507-334-5130,2704 W Airport Dr,Faribault,MN,55021,USA
277,-76.71449596993,42.293818993493,Finger Lakes H-D,607-594-3536,6033 SR 13,Cayuta,NY,14824,USA
278,-82.03581701964,39.897910980507,Fink's H-D,740-454-0010,2650 Maysville Pike,Zanesville,OH,43701,USA
279,-92.52583899535,47.467936975881,Five Seasons Sports Center,218-744-5871,US 53,Eveleth,MN,55734,USA
280,-109.471429,41.515555,Flaming Gorge H-D,307-875-5896,440 Uinta Dr,Green River,WY,82935,USA
281,-97.05214197747,36.084336983038995,Forman H-D,405-377-0045,3512 S Boomer Rd,Stillwater,OK,74074,USA
282,-78.9498769585,35.078394021838,Fort Bragg H-D,910-864-1200,3950 Sycamore Dairy Rd,Fayetteville,NC,28303,USA
283,-97.49318799935,35.327469985932005,Fort Thunder H-D,405-793-8877,500 SW 11th St,Moore,OK,73160,USA
284,-97.48038103803002,32.728506010025,Fort Worth H-D,866-698-9090,3025 W Loop 820 S,Fort Worth,TX,76116,USA
285,-108.12946999440001,36.776503985747,Four Corners H-D,505-325-6710,6520 E Main St,Farmington,NM,87402,USA
286,-88.59674300998002,37.015463998541,Four Rivers H-D,800-790-5636,3005 Old Husbands Rd,Paducah,KY,42003,USA
287,-80.92046298086,44.540211036801004,Fox H-D,519-371-6666,123003 Story Book Park Rd,Owen Sound,ON,N4K 5W9,CAN
288,-88.34127701818001,41.91005397588,Fox River H-D,630-584-8000,131 S Randall Rd,St. Charles,IL,60174,USA
289,-83.94641501829001,34.137337971478,Frazier's H-D,770-945-6011,4699 Friendship Rd,Buford,GA,30519,USA
290,-81.43273699096999,40.886475993320005,Freedom H-D,330-494-2453,7233 Sunset Strip Ave NW,North Canton,OH,44720,USA
291,-75.71959801018001,45.327367968857004,Freedom H-D Ottawa,613-736-8899,1963 Merivale Rd,Nepean,ON,K2G 1G1,CAN
292,-96.77805298939,40.81476596184,Frontier H-D,402-466-9100,205 NW 40th St,Lincoln,NE,68528,USA
293,-94.52433298340999,38.85941597633,Gail's H-D,816-966-2222,5900 E SR 150,Grandview,MO,64030,USA
294,-82.4511910323,29.691621959208998,Gainesville H-D,352-331-6363,4125 NW 97 Blvd,Gainesville,FL,32606,USA
295,-74.47075302712,40.848729014396,Garden State H-D,973-898-7100,1775 NJ-10,Morris Plains,NJ,07950,USA
296,-98.12244798056,49.192656967788,Gaslight H-D Sales,204-822-5877,999 Thornhill St,Morden,MB,R6M 1J9,CAN
297,-113.8106949627,52.214499022811005,Gasoline Alley H-D,403-341-3040,37 Petrolia Dr,Red Deer County,AB,T4E 1B3,CAN
298,-119.4113120064,49.900632994249,Gasoline Alley H-D Kelowna,250-860-0666,888 McCurdy Rd,Kelowna,BC,V1X 8C8,CAN
299,-90.32050600000001,38.510457,Gateway H-D,314-845-9900,3600 Lemay Ferry Rd,St. Louis,MO,63125,USA
300,-81.84663796797,28.816745979710998,Gator H-D,352-787-8050,1745 E Main St,Leesburg,FL,34748,USA
301,-79.75569301284,40.601889006793,Gatto H-D,724-224-0500,139 E 6th Ave,Tarentum,PA,15084,USA
302,-77.03024896793,42.858944004401,Geneva H-D,315-789-7976,1103 SR 5 & US 20,Geneva,NY,14456,USA
303,-72.6529150363,41.770874988287,Gengras H-D,855-844-2157,221 Governor St,East Hartford,CT,06108,USA
304,-84.2109479662,44.255076963454,Gildner's H-D,989-345-1330,2723 S M-76,West Branch,MI,48661,USA
305,-97.08600696176,44.888208964839,Glacial Lakes H-D,605-886-3448,1000 19th St SE,Watertown,SD,57201,USA
306,-114.2959459684,48.172542974352,Glacier H-D,866-927-0973,2480 US 93 S,Kalispell,MT,59901,USA
307,-95.42900998145001,29.144210005179,Goe H-D,979-849-3681,1350 S Velasco St,Angleton,TX,77515,USA
308,-115.747078,40.857146,Gold Rush H-D,775-777-3095,2640 Ruby Vista Dr,Elko,NV,89801,USA
309,-81.50729603134,31.245978008955003,Golden Isles H-D,912-280-0448,153 Venture Dr,Brunswick,GA,31525,USA
310,-112.01536598610001,41.170952003449,Golden Spike H-D,801-394-4464,5152 S 1500 W,Riverdale,UT,84405,USA
311,-74.60458201356,45.61094996519301,Goulet Motosports,613-632-3462,189 John St,Hawkesbury,ON,K6A 1Y1,CAN
312,-78.90752202831,42.461341973394,Gowanda H-D,716-532-4584,2535 Gowanda Zoar Rd,Gowanda,NY,14070,USA
313,-111.8166400305,35.231651002541,Grand Canyon H-D Bellemont,928-774-3896,12000 Bellemont Rd,Bellemont,AZ,86015,USA
314,-112.2228969633,34.393512988463,Grand Canyon H-D Mayer,928-632-4009,10434 S AZ 69,Mayer,AZ,86333,USA
315,-108.54306402610001,39.116040011867,Grand Junction H-D,970-245-0812,2747 Crossroads Blvd,Grand Junction,CO,81506,USA
316,-85.85729397833,42.847433974966,Grand Rapids H-D,877-818-0230,2977 Corporate Grove Dr,Hudsonville,MI,49426,USA
317,-83.91476696356999,43.62929798662599,Great Lakes H-D,989-686-0400,3850 S Huron Rd,Bay City,MI,48706,USA
318,-91.33462001569,39.937675986437995,Great River Road H-D,217-224-1004,5101 Oak St,Quincy,IL,62305,USA
319,-84.77515700273001,33.330188021063,Great South H-D,678-228-8213,185 E GA 16,Newnan,GA,30263,USA
320,-104.7270010225,40.389657961204,Greeley H-D,800-955-0255,3010 W 29th St,Greeley,CO,80631,USA
321,-89.92779300548,38.587657995522,Green Mount Road H-D,618-622-0045,1560 N Green Mount Rd,O'Fallon,IL,62269,USA
322,-73.12661896459001,44.497538013383,Green Mountain H-D,802-878-4778,157 Pearl St,Essex Junction,VT,05452,USA
323,-114.06882396889999,46.921759005635,Grizzly H-D,800-431-2453,5106 E Harrier Blvd,Missoula,MT,59808,USA
324,-78.12568902969,39.140061037614004,Grove's Winchester H-D,540-662-4468,140 Independence Dr,Winchester,VA,22602,USA
325,-98.10873300768,29.724931977689,Gruene H-D,830-624-2473,1288 Loop 337,New Braunfels,TX,78130,USA
326,-123.20965298450001,39.184321006759994,Gunnink's H-D,800-495-1672,2600 N State St,Ukiah,CA,95482,USA
327,-80.77375100925,41.122437966987,H-D Biketown,330-505-2000,5700 Interstate Blvd,Youngstown,OH,44515,USA
328,-86.41452499665002,36.936381999403,H-D Bowling Green,270-846-4488,251 Cumberland Trace Rd,Bowling Green,KY,42103,USA
329,-84.88874503410999,39.864720990881,H-D Center,765-962-0596,2240 Chester Blvd,Richmond,IN,47374,USA
330,-68.18916401825,49.214287977665,H-D Cote-Nord,418-296-9191,305 boul LaSalle,Baie Comeau,QC,G4Z 2S5,CAN
331,-147.82972203559999,64.835575036704,H-D Farthest North Outpost,907-456-3265,1450 Karen Way,Fairbanks,AK,99709,USA
332,-87.95967000536,43.045879974961004,H-D Juneau Ave,414-343-4056,3700 W Juneau Ave,Milwaukee,WI,53208,USA
333,-85.75167302973,38.221812983974,H-D Louisville,502-634-1340,1700 Arthur St,Louisville,KY,40208,USA
334,-73.62664701417,45.459934975951,H-D Montreal,514-483-6686,6695 rue St-Jacques,Montreal,QC,H4B 1V3,CAN
335,-87.91719999163999,43.031309964135,H-D Museum,414-287-2700,400 W Canal St,Milwaukee,WI,53201,USA
336,-88.10192699544001,43.184323702007,H-D Powertrain Operations,877-883-1450,W156N9000 Pilgrim Rd,Menomonee Falls,WI,53051,USA
337,-68.49268899299,48.453897982834995,H-D Rimouski Cool website!,418-724-0883,424 Montee Industrielle,Rimouski,QC,G5M 1X1,CAN
338,-97.33191900886,41.438600001855995,H-D Sales of Columbus,402-564-8733,410 23rd St,Columbus,NE,68601,USA
339,-66.39115903526,50.227709021419,H-D Sept-Iles,418-960-0111,1008 Laure Blvd,Sept-Iles,QC,G4R 5P1,CAN
340,-71.00438199999999,43.329544,H-D Shop of Rochester,603-330-3330,7 Crane Dr,Rochester,NH,03867,USA
341,-91.60330896264999,44.025876000523006,H-D Shop of Winona,507-454-4578,1845 Mobile Dr,Winona,MN,55987,USA
342,-92.19604203476999,46.826716018839996,H-D Sport Center,218-729-9600,4355 Stebner Rd,Duluth,MN,55811,USA
343,-89.697613,45.462993,H-D Tomahawk Operations,715-453-2191?,611 S Kaphaem Rd,Tomahawk,WI,54487,USA
344,-94.66757199726,39.299893034622,H-D Vehicle & Powertrain Operations,816-270-8488,11401 N Congress Ave,Kansas City,MO,64153,USA
345,-76.71500399708,39.983894973993,H-D Vehicle Operations,717-848-1177,1425 Eden Rd,York,PA,17402,USA
346,-71.93113803863001,46.07774301432,H-D Victoriaville,819-758-8830,12 Rte-116,Victoriaville,QC,G6T 0S3,CAN
347,-97.14453795924,31.506329979747,H-D Waco,254-753-0393,4201 S Jack Kultgen Expy,Waco,TX,76706,USA
348,-97.04529597423,49.857555963099,H-D Winnipeg,204-254-3974,1377 Niakwa Rd E,Winnipeg,MB,R2J 3T3,CAN
349,-97.63437897898001,35.46315296553,H-D World,405-631-8680,6904 W Reno Ave,Oklahoma City,OK,73127,USA
350,-75.74378399178,45.462537975981,H-D de L'Outaouais,819-772-8008,22 Mont-blue Blvd,Gatineau,QC,J8Z 1J1,CAN
351,-82.40295896306,35.598707031458,H-D of Asheville,828-581-2000,20 Patton Cove Rd,Swannanoa,NC,28778,USA
352,-83.481962,33.940344,H-D of Athens,706-548-3300,4225 Atlanta Hwy,Athens,GA,30606,USA
353,-84.62812601588,33.791061015798995,H-D of Atlanta,770-944-1340,501 Thornton Rd,Lithia Springs,GA,30122,USA
354,-76.47135104051999,39.340386008843005,H-D of Baltimore,410-238-2003,8845 Pulaski Hwy,Baltimore,MD,21237,USA
355,-91.05679102241,30.397071009500998,H-D of Baton Rouge,225-292-9632,5853 Siegen Ln,Baton Rouge,LA,70809,USA
356,-86.53873700648,39.185179984197,H-D of Bloomington,812-333-8300,522 W Gourley Pike,Bloomington,IN,47404,USA
357,-94.846683,42.064885,H-D of Carroll,712-792-1610,1327 Plaza Dr,Carroll,IA,51401,USA
358,-80.7170800399,35.140508031472,H-D of Charlotte,704-847-4647,9205 E Independence Blvd,Matthews,NC,28105,USA
359,-75.68107000551998,40.071849972009,H-D of Chester Springs,610-458-9004,12 Pottstown Pike,Chester Springs,PA,19425,USA
360,-82.956009,39.323271000000005,H-D of Chillicothe,740-773-8826,818 Eastern Ave,Chillicothe,OH,45601,USA
361,-84.46628403849,39.166502002626,H-D of Cincinnati,513-641-1188,1799 Tennessee Ave,Cincinnati,OH,45229,USA
362,-86.89175200648,35.640048002824,H-D of Columbia,931-540-0099,1616 H-D Blvd,Columbia,TN,38401,USA
363,-86.81587398983,35.95411196351,H-D of Cool Springs,615-771-7775,7128 S Springs Dr,Franklin,TN,37067,USA
364,-96.67950896546,33.098393026739004,H-D of Dallas,214-495-0259,304 Central Expressway S,Allen,TX,75013,USA
365,-73.41970100998,41.418715026229,H-D of Danbury,203-730-2453,51 Federal Rd,Danbury,CT,06810,USA
366,-85.41357102803,31.198113989084,H-D of Dothan,334-792-0063,2418 Ross Clark Cir SW,Dothan,AL,36301,USA
367,-113.4556439984,53.582621002569,H-D of Edmonton,780-451-7857,7420 Yellowhead Tr,Edmonton,AB,T5B 1G3,CAN
368,-80.1656560041,42.092566983774,H-D of Erie,814-838-1356,3712 W 12th St,Erie,PA,16505,USA
369,-96.910956,46.850279,H-D of Fargo,701-277-1000,701 Christianson Dr W,West Fargo,ND,58078,USA
370,-121.18395796040001,38.656479036435,H-D of Folsom,916-608-9922,115 Woodmere Dr,Folsom,CA,95630,USA
371,-85.22408997640001,41.073989979922,H-D of Fort Wayne,260-489-2464,6315 Illinois Rd,Fort Wayne,IN,46804,USA
372,-77.40517803466999,39.390536025166,H-D of Frederick,301-694-8177,5722 Urbana Pike,Frederick,MD,21704,USA
373,-119.8707139771,36.808057995513,H-D of Fresno,559-275-8586,4345 W Shaw Ave,Fresno,CA,93722,USA
374,-118.2556680031,34.124290030448996,H-D of Glendale,818-246-5618,3717 San Fernando Rd,Glendale,CA,91204,USA
375,-82.29326197877,34.834167994558,H-D of Greenville,864-234-1340,30 Chrome Dr,Greenville,SC,29615,USA
376,-86.002738,39.968739,H-D of Indianapolis,317-815-1800,12400 Reynolds Dr,Fishers,IN,46038,USA
377,-90.21382603794001,32.251345971599,H-D of Jackson,601-372-5770,3509 I-55 S,Jackson,MS,39212,USA
378,-79.18889799155,42.127005960792,H-D of Jamestown,716-484-0113,1951 E Main St,Falconer,NY,14733,USA
379,-90.64249902963002,35.810935981571,H-D of Jonesboro,870-932-0780,4500 Oliver St,Jonesboro,AR,72401,USA
380,-95.24692503735001,30.065531032159,H-D of Kingwood,281-358-0457,111 Northpines Dr,Kingwood,TX,77339,USA
381,-86.12773499451,40.427713980898,H-D of Kokomo,765-864-9999,335 S US-31,Kokomo,IN,46902,USA
382,-93.18953401409,30.227454984559998,H-D of Lake Charles,337-436-0022,2120 Broad St,Lake Charles,LA,70601,USA
383,-79.23644802533,37.341337976977,H-D of Lynchburg,434-237-2381,20452 Timberlake Rd,Lynchburg,VA,24502,USA
384,-83.72627598233001,32.831029007211,H-D of Macon,478-474-3344,5000 Mercer University Dr,Macon,GA,31210,USA
385,-89.27303996868,43.044188003986996,H-D of Madison,608-221-2761,6200 Millpond Rd,Madison,WI,53718,USA
386,-93.20130296051,43.144299024716,H-D of Mason City,641-423-6007,706 S Federal,Mason City,IA,50401,USA
387,-86.21319201774,32.401095964014004,H-D of Montgomery,334-277-2540,655 N Eastern Blvd,Montgomery,AL,36117,USA
388,-73.53701999409999,40.666269985957996,H-D of Nassau County,516-409-9200,2428 Sunrise Hwy,Bellmore,NY,11710,USA
389,-77.02731798402,35.072840005159,H-D of New Bern,252-633-4060,1613 US 70 E,New Bern,NC,28560,USA
390,-82.71816696971,28.217268995940003,H-D of New Port Richey,727-842-4547,5817 SR 54,New Port Richey,FL,34652,USA
391,-73.92077696509,40.753362989053,H-D of New York,718-707-9300,4211 Northern Blvd,Long Island City,NY,11101,USA
392,-74.20594397932,40.048926975578,H-D of Ocean County,732-367-7000,300 NJ 70,Lakewood,NJ,08701,USA
393,-85.853767,30.213953999999998,H-D of Panama City Beach,888-547-2905,14700 Panama City Beach Pky,Panama City Beach,FL,32413,USA
394,-87.25363296456,30.479681035503003,H-D of Pensacola,850-494-1224,6385 Pensacola Blvd,Pensacola,FL,32505,USA
395,-122.7723850216,53.881020024418,H-D of Prince George,250-564-6667,2626 Vance Rd,Prince George,BC,V2N 7A7,CAN
396,-77.33057700097,38.562268959358,H-D of Quantico,703-221-3757,17975 Main St,Dumfries,VA,22026,USA
397,-77.62964003719,43.100209962575995,H-D of Rochester,585-424-2120,2600 W Henrietta Rd,Rochester,NY,14623,USA
398,-121.44378600000002,38.606056,H-D of Sacramento,916-929-4680,1000 Arden Way,Sacramento,CA,95815,USA
399,-97.59364603087,38.87772699818,H-D of Salina,785-823-3767,2200 N Ohio,Salina,KS,67401,USA
400,-111.88846497790001,40.707894014194004,H-D of Salt Lake City,801-487-4647,2928 S State St,Salt Lake City,UT,84115,USA
401,-111.895261025,33.627779027447,H-D of Scottsdale,480-905-1903,15656 N Hayden Rd,Scottsdale,AZ,85260,USA
402,-127.1767609845,54.789453037083,H-D of Smithers,250-847-3784,4320 Hwy 16 W,Smithers,BC,V0J 2N0,CAN
403,-72.69965001381,42.251753993332,H-D of Southampton,413-527-1556,17 College Highway Rt 10,Southampton,MA,01073,USA
404,-74.07633299999999,40.631382,H-D of Staten Island,718-831-6537,440-442 Bay St,Staten Island,NY,10304,USA
405,-84.36192297375999,30.476340008899,H-D of Tallahassee,888-547-2915,1745 Capital Cir NW,Tallahassee,FL,32303,USA
406,-82.50527802854,28.012015968561002,H-D of Tampa,888-281-5285,6920 N Dale Mabry Hwy,Tampa,FL,33614,USA
407,-75.30115898698001,43.099222993478,H-D of Utica,315-797-5570,4870 Commercial Dr,New York Mills,NY,13417,USA
408,-87.07544200122,41.459277989342,H-D of Valparaiso,219-462-2223,1151 W US 30,Valparaiso,IN,46385,USA
409,-117.31953899999999,34.515977,H-D of Victorville,760-951-1119,14522 Valley Center Dr,Victorville,CA,92395,USA
410,-76.99533498845,38.760784026235,H-D of Washington DC,301-248-1200,9407 Livingston Rd,Fort Washington,MD,20744,USA
411,-89.63456897065001,44.858549013733,H-D of Wausau,715-355-4464,1570 CR XX,Rothschild,WI,54474,USA
412,-81.73242297023,38.354474036023,H-D of West Virginia,304-768-1600,4924 MacCorkle Ave,South Charleston,WV,25309,USA
413,-77.80605797655,39.594211997464,H-D of Williamsport,301-223-1800,10210 Governor Lane Blvd,Williamsport,MD,21795,USA
414,-102.4527249857,51.206751018762,H-D of Yorkton,306-783-1999,86 7th Ave,Yorkton,SK,S3N 3V2,CAN
415,-121.63503896440001,39.134591007604996,H-D of Yuba City,530-673-3548,720 W Onstott Rd,Yuba City,CA,95991,USA
416,-115.7443029619,49.532004017382,H-D of the Kootenays,250-426-6606,2108 N Cranbrook St,Cranbrook,BC,V1C 3T1,CAN
417,-95.44511899352,30.133273992687002,H-D of the Woodlands,281-681-0099,25545 I-45 N,The Woodlands,TX,77380,USA
418,-82.5121360179,40.796287972479995,Hale's H-D,419-522-8602,1400 Harrington Memorial Rd,Mansfield,OH,44903,USA
419,-89.60488798096,39.832819970324,Hall's H-D,217-528-8356,2301 N Dirksen Pkwy,Springfield,IL,62702,USA
420,-85.44754598289,41.796319009735996,Hamilton H-D,269-651-3424,68951 White School Rd,Sturgis,MI,49091,USA
421,-90.45696300454,30.488855028523997,Hammond H-D,985-345-8381,1530 SW Railroad Ave,Hammond,LA,70403,USA
422,-76.47294703870999,37.171015022322,Hampton Roads H-D,757-872-7223,6450 George Washington Hwy; US-17,Yorktown,VA,23692,USA
423,-75.55236303247,39.879176001995,Hannum's H-D Chadds Ford,610-558-3331,1241 Baltimore Pike,Chadds Ford,PA,19317,USA
424,-75.42556696571,39.915126990526,Hannum's H-D Media,610-566-5562,1011 W Baltimore Pike,Media,PA,19063,USA
425,-74.27817000076,40.606008963659,Hannum's H-D Rahway,732-381-2400,12 W Milton Ave,Rahway,NJ,07065,USA
426,-75.30479,40.344763,Hannum's H-D Sellersville,215-257-6112,3255 State Rd,Sellersville,PA,18960,USA
427,-75.634343,41.471637,Hannum's H-D of Electric City,570-483-0883,1534 Scranton Carbondale Hwy,Scranton,PA,18508,USA
428,-87.71090600000001,44.069443,Harbor Town H-D,920-684-0237,2433 Hecker Rd,Manitowoc,WI,54220,USA
429,-81.16846600000001,34.096498,Harley Haven,803-781-1837,941 Western Ln,Irmo,SC,29063,USA
430,-77.36810998991,43.118155030532996,Harv's H-D,585-377-0711,3120 Kittering Rd,Macedon,NY,14502,USA
431,-86.78311399184,33.338488033041,Heart of Dixie H-D,205-560-1234,333 Cahaba Valley Pkwy,Pelham,AL,35124,USA
432,-91.14184697158001,40.81004996784,Heartland H-D,319-754-1100,155 S Roosevelt,Burlington,IA,52601,USA
433,-84.55087001435001,33.929149014875,Hellbender H-D,770-919-0000,993 S Cobb Dr,Marietta,GA,30060,USA
434,-117.0024070143,46.414839019998,Hells Canyon H-D,208-743-7433,306 21st St,Lewiston,ID,83501,USA
435,-115.03175700000001,36.05652,Henderson H-D,702-456-1666,1010 W Warm Springs Rd,Henderson,NV,89014,USA
436,-71.50256101973001,43.188327988609,Heritage H-D Concord,800-427-5391,142 Manchester St,Concord,NH,03301,USA
437,-113.49469101049999,53.418670976534,Heritage H-D Edmonton,780-430-7200,1616 Calgary Tr SW,Edmonton,AB,T6W 1A1,CAN
438,-88.10187997295999,41.797249987721,Heritage H-D Lisle,630-420-1942,2595 Ogden Ave,Lisle,IL,60532,USA
439,-94.51532000674999,37.032510023564,Hideout H-D,417-623-1054,5014 Hearnes Blvd,Joplin,MO,64804,USA
440,-104.982494004,40.081269973888,High Country H-D,303-833-6777,3761 Monarch St,Frederick,CO,80516,USA
441,-104.7699600365,41.138779995962,High Country H-D Cheyenne,307-638-8307,3320 E Lincoln Way,Cheyenne,WY,82001,USA
442,-116.36540701610001,43.591930959372995,High Desert H-D,208-338-5599,2310 E Cinema Dr,Meridian,ID,83642,USA
443,-71.29262401721999,42.584313964471,High Octane H-D,978-663-6298,1 Chelmsford Rd,North Billerica,MA,01862,USA
444,-103.1485950294,34.394574975594004,High Plains H-D,888-883-9034,4400 Mabry Dr,Clovis,NM,88101,USA
445,-78.84330198168,39.636820983141,Highland H-D Shop,240-362-0200,1285 National Hwy,LaVale,MD,21505,USA
446,-79.07794799655,40.015966985374,Highland H-D Somerset,814-444-1903,802 N Center Ave,Somerset,PA,15501,USA
447,-124.2145480401,43.363947970792,Highway 101 H-D,541-266-7051,536 S 2nd St,Coos Bay,OR,97420,USA
448,-95.68348196334999,39.029833981767,Historic H-D,785-234-6174,2047 SW Topeka Blvd,Topeka,KS,66612,USA
449,-84.75300204008,43.611937975509996,Holeshot H-D,989-772-5513,4741 E Pickard Rd,Mt. Pleasant,MI,48858,USA
450,-96.02408998645001,41.210700999945004,Holstein's H-D,402-331-0022,4940 S 72nd St,Omaha,NE,68127,USA
451,-77.40810600109,35.536877000704,Hometown H-D,252-439-1345,2300 Elaines Way,Winterville,NC,28590,USA
452,-85.98574697971,41.703857984393004,Hoosier H-D,574-262-2735,720 W Bristol St,Elkhart,IN,46514,USA
453,-97.43351697921,31.063081026076997,Horny Toad H-D,254-743-7200,7454 S General Bruce Dr,Temple,TX,76502,USA
454,-97.68450099974001,31.075548017396997,Horny Toad H-D Fort Hood,254-680-4747,875 W Central Texas Expy,Harker Heights,TX,76548,USA
455,-76.96292200125,41.248416965827,Horsepower H-D,570-320-0630,1910 E 3rd St,Williamsport,PA,17701,USA
456,-79.93301301263,40.360985985025,Hot Metal H-D,412-464-9453,1122 Lebanon Rd,West Mifflin,PA,15122,USA
457,-86.24936998820999,43.238939009606,Hot Rod H-D,231-722-0000,149 Shoreline Dr,Muskegon,MI,49440,USA
458,-149.933159966,61.182109974324,House of H-D Anchorage,907-248-5300,4334 Spenard Rd,Anchorage,AK,99517,USA
459,-87.99225599504999,42.95916700735601,House of H-D Greenfield,414-282-2211,6221 W Layton Ave,Greenfield,WI,53220,USA
460,-87.87022101692,42.720169024541,House of H-D Racine,262-884-0123,1155 Oakes Rd,Racine,WI,53406,USA
461,-121.6258560027,37.122199991717,House of Thunder H-D,408-776-1900,16175 Condit Rd,Morgan Hill,CA,95037,USA
462,-73.998249,41.098195000000004,Hudson Valley H-D,845-627-5500,33 NY-304,Nanuet,NY,10954,USA
463,-86.824051,40.415337,Hunter's Moon H-D,765-588-6721,225 Progress Dr,Lafayette,IN,47905,USA
464,-118.0010889843,33.742917040362,Huntington Beach H-D,714-891-4300,15080 Goldenwest Cir,Westminster,CA,92683,USA
465,-88.95094497129,38.314458997920006,I-57 Roadhouse H-D,618-244-4116,205 N 44th St,Mount Vernon,IL,62864,USA
466,-87.86538801155001,41.779959965497,Illinois H-D,708-387-8750,9950 Joliet Rd,Countryside,IL,60525,USA
467,-86.08451798558,39.664791980758,Indianapolis Southside H-D,317-885-5180,4930 Southport Crossing Pl,Indianapolis,IN,46237,USA
468,-86.36897002346001,39.672539960592,IndyWest H-D,317-279-0062,6201 Cambridge Way,Plainfield,IN,46168,USA
469,-90.32854998484001,40.94616997987,Iron Eagle H-D,309-342-3910,131 S Soangetaha Rd,Galesburg,IL,61401,USA
470,-97.48870896174999,35.621062992140004,Iron Nation H-D,405-478-4024,3433 S Broadway,Edmond,OK,73013,USA
471,-121.9418099988,38.379040975123,Iron Steed H-D,707-455-7000,100 Auto Center Dr,Vacaville,CA,95687,USA
472,-88.10821803286,43.00847799517201,Iron Town H-D,262-860-2060,1925 S Moorland Rd,New Berlin,WI,53151,USA
473,-76.43551102839001,40.235546026378,Iron Valley H-D,717-664-0888,3091 Lebanon Rd,Manheim,PA,17545,USA
474,-96.76261302083,43.601668970659,J & L H-D,605-334-2721,2601 W 60th St N,Sioux Falls,SD,57107,USA
475,-65.54154703393,47.006295025347995,JH Stewart,506-622-3405,564 Water St,Miramichi,NB,E1V 3G5,CAN
476,-120.4241390246,37.954442007467,Jamestown H-D,209-984-4888,18275 CA-108,Jamestown,CA,95327,USA
477,-98.6759760417,29.729127958416,Javelina H-D,830-755-5202,29078 W I-10 Frontage Rd,Boerne,TX,78006,USA
478,-84.5259139873,40.670104036107,Jim's H-D Sales,419-795-4185,7172 OH-707,Mendon,OH,45862,USA
479,-82.68385699018,39.771223962305996,Joe Carson H-D,740-756-1900,2930 Helena Dr,Carroll,OH,43112,USA
480,-114.0364819765,51.041126959025,Kane's H-D Calgary,403-269-8577,914 11th St SE,Calgary,AB,T2G 3E8,CAN
481,-159.3962579872,21.966484989970002,Kauai H-D,808-212-9495,3-1866 Kaumauli'i Hwy,Lihue,HI,96766,USA
482,-88.97777401841999,42.240329040214,Kegel H-D,815-332-7125,7125 Harrison Ave,Rockford,IL,61112,USA
483,-150.9865800384,60.50119601189999,Kenai Peninsula H-D,907-260-6777,41605 Sterling Hwy,Soldotna,AK,99669,USA
484,-99.77718302048001,32.414076011627,Kents H-D Sales,866-673-7103,3106 S Clack St,Abilene,TX,79606,USA
485,-86.77220201118999,41.157425036653,Kersting's H-D,574-896-2974,8774 W 700 N,Winamac,IN,46996,USA
486,-75.68527998402,40.821049958467,Keystone H-D,610-379-4055,770 State Rd,Parryville,PA,18244,USA
487,-84.32577802799,34.059865968301004,Killer Creek H-D,770-777-1000,11480 Alpharetta Hwy,Roswell,GA,30076,USA
488,-83.990659,36.007145,Knoxville H-D,865-689-2454,5810 Clinton Hwy,Knoxville,TN,37912,USA
489,-70.19738998264,44.130820026620995,L-A H-D,207-786-2822,839 Main St,Lewiston,ME,04240,USA
490,-91.21934202499,43.871326027438,LaCrosse Area H-D,608-783-6112,1116 Oak Forest Dr,Onalaska,WI,54650,USA
491,-71.49937204085,43.648438984528,Laconia H-D,603-279-4526,239 Daniel Webster Hwy,Meredith,NH,03253,USA
492,-117.9642599914,34.069052031263,Laidlaw's H-D Sales,626-851-0412,1919 Puente Ave,Baldwin Park,CA,91706,USA
493,-82.05214203335,41.466932008042,Lake Erie H-D,440-934-5000,38401 Chester Rd,Avon,OH,44011,USA
494,-87.90428096428002,42.280548010021,Lake Shore H-D,847-662-4500,14000 Rockland Rd,Libertyville,IL,60048,USA
495,-92.68548600375,38.097348008304,Lake of the Ozarks H-D Shop,573-302-7600,6482 Osage Beach Pkwy,Osage Beach,MO,65065,USA
496,-81.95301999336999,28.095459993928,Lakeland H-D,863-802-1971,4202 Lakeland Hills Blvd,Lakeland,FL,33805,USA
497,-76.27017002551999,39.988880027084996,Lancaster H-D,717-464-2703,308 Beaver Valley Pike,Willow Street,PA,17584,USA
498,-121.918310998,37.317169010639,Lane Splitter H-D,408-998-1464,1551 Parkmoor Ave,San Jose,CA,95128,USA
499,-99.482184,27.609207,Laredo H-D,956-717-8763,418 Crossroads St,Laredo,TX,78045,USA
500,-77.72609001024999,41.777979992329996,Larry's H-D,814-435-6548,1913 US 6 W,Galeton,PA,16922,USA
501,-115.1724349614,36.082710977642996,Las Vegas H-D,888-218-0744,5191 S Las Vegas Blvd,Las Vegas,NV,89119,USA
502,-122.58113002399999,45.38330996409,Latus Motors H-D,503-249-8653,870 E Berkeley,Gladstone,OR,97027,USA
503,-123.0214159749,44.010702995583,Latus Motors H-D Eugene,541-747-1033,86441 College View Rd,Eugene,OR,97405,USA
504,-122.2185879852,47.44608300738,Lawless H-D Renton,425-988-2100,3715 E Valley Rd,Renton,WA,98057,USA
505,-89.55877100116999,37.227734019979,Lawless H-D Scott City,573-334-7716,2100 E Outer Rd,Scott City,MO,63780,USA
506,-88.51481803691999,39.147601984440996,Legacy H-D Effingham,217-342-3494,1315 Althoff Ave,Effingham,IL,62401,USA
507,-102.2447510249,31.908424962311003,Legacy H-D Odessa,432-561-8991,12100 W Hwy 80 E,Odessa,TX,79765,USA
508,-92.45780501514,41.009212033823,Lentner Cycle Co,641-682-0493,2021 Albia Rd,Ottumwa,IA,52501,USA
509,-73.47245302051,45.441937018184994,Leo H-D,450-443-4488,8705 Blvd Taschereau,Brossard,QC,J4Y 1A4,CAN
510,-84.12039399147,40.691269012168,Lima H-D,419-331-3027,3255 Ft Shawnee Ind Dr,Lima,OH,45806,USA
511,-121.70409402809999,37.715599006041,Livermore H-D,925-606-0100,7576 Southfront Rd,Livermore,CA,94551,USA
512,-95.82299295812,41.054094024002,Loess Hills H-D,712-622-4000,57408 190th St,Pacific Junction,IA,51561,USA
513,-95.2667370066,32.335213031619,Lone Star H-D,903-597-1488,1211 SSE Loop 323,Tyler,TX,75701,USA
514,-117.1492120251,47.666051974519995,Lone Wolf H-D,509-927-7433,19011 E Cataldo,Spokane Valley,WA,99016,USA
515,-97.05376999452,32.677789963781,Longhorn H-D,972-988-1903,2830 W I-20,Grand Prairie,TX,75052,USA
516,-78.40948996134,44.265938987954996,Longley H-D,705-745-0421,2241 Davis Rd,Cavan Monaghan,ON,K9J 0G5,CAN
517,-117.974503,33.859279,Los Angeles H-D of Anaheim,714-871-6563,2635 W Orangethorpe Ave,Fullerton,CA,92833,USA
518,-80.01948902383,32.853847984224,Low Country H-D,843-554-1847,4707 Dorchester Rd,Charleston,SC,29405,USA
519,-94.68348001129,31.626120032742,Lumberjack H-D,936-715-0100,2518 NW Stallings Dr,Nacogdoches,TX,75964,USA
520,-77.63496003113,39.926399979740005,M & S H-D,717-709-9650,160 Falling Spring Rd,Chambersburg,PA,17202,USA
521,-78.88875997625,43.873450001701,Mackie H-D,905-434-6550,880 Champlain Ave,Oshawa,ON,L1J 7A6,CAN
522,-97.66398997977,26.146779991686,Mad Boar H-D,956-399-4244,3515 W Expressway 83,San Benito,TX,78586,USA
523,-82.65994702465,41.404371997341,Mad River H-D,419-502-2244,5316 Milan Rd,Sandusky,OH,44870,USA
524,-101.2858100049,48.211220009252,Magic City H-D,701-839-6330,515 20th Ave SE,Minot,ND,58701,USA
525,-84.40972396172,38.016688032075,Man O' War H-D,859-253-2461,2073 Bryant Rd,Lexington,KY,40509,USA
526,-82.47544398531001,27.494659004732,Manatee River H-D,941-745-2429,624 67th St Cir E,Bradenton,FL,34208,USA
527,-71.43936599604,42.959260968491,Manchester H-D,603-622-2461,115 John Devine Dr,Manchester,NH,03103,USA
528,-95.39226002990999,29.814350036904003,Mancuso H-D Central,713-880-5666,535 N Loop W Fwy,Houston,TX,77018,USA
529,-95.61123297549,29.914637999609,Mancuso H-D Crossroads,281-970-9700,12710 Crossroads Park Dr,Houston,TX,77065,USA
530,-85.96254603937,39.312466979026,Mann's H-D,812-526-3485,3250 W Market Place Dr,Edinburgh,IN,46124,USA
531,-119.789481014,36.751546030864,Mathews H-D,559-233-5279,548 Blackstone Ave,Fresno,CA,93701,USA
532,-156.4571690373,20.879445020109,Maui H-D,808-877-7433,150 Dairy Rd,Kahului,HI,96732,USA
533,-96.91840200684,32.965315980836,Maverick H-D,972-245-1492,1845 N I-35E,Carrollton,TX,75006,USA
534,-86.21788303366999,41.657646037638,McDaniel's H-D,574-289-6650,1910 Lincoln Way E,South Bend,IN,46613,USA
535,-73.50205102935,43.384387996047,McDermott's H-D,518-746-9303,4294 US 4,Fort Ann,NY,12827,USA
536,-90.732596023,42.492449982090996,McGrath Dubuque H-D,563-557-3735,145 N Crescent Ridge,Dubuque,IA,52003,USA
537,-91.62773097864999,41.696180999279,McGrath Hawkeye H-D,319-545-7495,120 Westcor Dr,Coralville,IA,52241,USA
538,-122.067155,37.986129,McGuire H-D,925-945-6500,93 1st Ave N,Pacheco,CA,94553,USA
539,-88.23461998254,42.340019959956,McHenry H-D,815-344-9300,1903 W SR 120,McHenry,IL,60051,USA
540,-80.31986701301999,40.747498003765,McMahon's H-D,724-846-6251,613 7th Ave,Beaver Falls,PA,15010,USA
541,-91.72212998382,41.955729983747,Metro H-D,319-362-9496,2415 Westdale Dr SW,Cedar Rapids,IA,52404,USA
542,-92.25024998188,38.961519962176,Mid America H-D,573-875-4444,5704 Freedom Dr,Columbia,MO,65202,USA
543,-83.73207399620999,39.892834983766,Mid-Ohio H-D,937-322-3590,2100 Quality Ln,Springfield,OH,45505,USA
544,-118.790324,55.192482,Mighty Peace H-D,780-882-8883,12401 99th St,Grande Prairie,AB,T8V 6Y5,CAN
545,-90.75573896056999,29.613492982462002,Mike Bruno's Bayou Country H-D,985-772-6240,1740 Martin Luther King Blvd,Houma,LA,70360,USA
546,-89.75145997479,30.281671984120997,Mike Bruno's Northshore H-D,985-288-2443,791 W I-10 Service Rd,Slidell,LA,70458,USA
547,-72.1116620209,41.345488037914,Mike's Famous H-D New London,860-574-9200,951 Bank St,New London,CT,06320,USA
548,-52.82556298188,47.533046007156,Mile 1 H-D,709-364-9051,12 Allston St,Mount Pearl,NL,A1N 0A4,CAN
549,-104.7943480219,39.764808034524,Mile High H-D Aurora,888-747-2464,16565 E 33rd Dr,Aurora,CO,80011,USA
550,-104.769359,39.543141,Mile High H-D of Parker,720-842-1500,6280 E Pine Ln,Parker,CO,80138,USA
551,-88.05368000640999,43.119409969076,Milwaukee H-D,414-461-4444,11310 W Silver Spring Rd,Milwaukee,WI,53225,USA
552,-82.53257503733,37.467339020222,Mineshaft H-D,606-433-0911,114 Harley Dr,Pikeville,KY,41501,USA
553,-71.03421497158001,41.638939976692,Minuteman H-D,508-999-1200,799 State Rd,Dartmouth,MA,02747,USA
554,-73.72905601747,40.776386987417,Miracle Mile H-D,516-466-8800,215 Northern Blvd,Great Neck,NY,11021,USA
555,-88.81550699472,43.490054039284,Mischler's H-D,920-887-8425,N8131 Kellom Rd,Beaver Dam,WI,53916,USA
556,-88.9342250023,30.444939974695,Mississippi Coast H-D,228-388-8700,941 Cedar Lake Rd,Biloxi,MS,39532,USA
557,-121.03009597389999,37.644190974533,Mitchell's Modesto H-D,209-522-1061,500 N Carpenter Rd,Modesto,CA,95351,USA
558,-88.12375003471001,30.662391018122,Mobile Bay H-D,251-471-2174,3260 Pleasant Valley Rd,Mobile,AL,36606,USA
559,-72.23124898038,42.875603958964,Monadnock H-D,603-352-1472,588 Monadnock Hwy,Swanzey,NH,03446,USA
560,-71.00876701064,42.040105992928,Monty's H-D,508-583-1172,751 N Main St,West Bridgewater,MA,02379,USA
561,-74.07776196486999,41.488369982689,Moroney's H-D Sales,845-564-5400,833 Union Ave,New Windsor,NY,12553,USA
562,-114.01936504049999,35.217703012749,Mother Road H-D,928-757-1166,2501 Beverly Ave,Kingman,AZ,86409,USA
563,-83.43505,42.475274,Motor City H-D,248-473-7433,24800 Haggerty Rd,Farmington Hills,MI,48335,USA
564,-76.51186798699,44.26885899156299,Motosport Plus,613-544-4600,295 Dalton Ave,Kingston,ON,K7K 6Z1,CAN
565,-83.26897996477,42.203849991783,Motown H-D,734-947-4647,14100 Telegraph Rd,Taylor,MI,48180,USA
566,-85.00014999881,34.757110979408004,Mountain Creek H-D,706-370-7433,1001 Market St,Dalton,GA,30720,USA
567,-82.16960300691,37.779225027188,Mountain State H-D,304-475-0123,US 119 Preece Bottom Rd,Delbarton,WV,25670,USA
568,-121.98510797690001,49.144738968461,Mountainview H-D,604-792-7820,44768 Yale Rd W,Chilliwack,BC,V2R 0G5,CAN
569,-85.79322899691,33.611684013158005,Mt. Cheaha H-D,256-832-8888,231 Davis Loop Rd,Oxford,AL,36203,USA
570,-95.97591801546,36.093859998509004,Myers-Duren H-D,918-743-4440,4848 S Peoria,Tulsa,OK,74105,USA
571,-78.94127301870999,33.647428974509,Myrtle Beach H-D,843-369-5555,4710 S Kings Hwy,Myrtle Beach,SC,29575,USA
572,-81.7444700282,26.212440971284998,Naples H-D,239-594-5504,3645 Gateway Ln,Naples,FL,34109,USA
573,-84.10664096474,41.417251965031,Napoleon H-D,419-592-7123,862 American Rd,Napoleon,OH,43545,USA
574,-87.70361602306,34.714312981814,Natchez Trace H-D,256-383-5814,595 US 72 W,Tuscumbia,AL,35674,USA
575,-80.70748896338,40.38064003922,Neidengard's H-D,740-266-6188,284 Canton Rd,Wintersville,OH,43953,USA
576,-80.18779898061999,40.968775972722995,New Castle H-D,724-924-2310,4655 US 422,New Castle,PA,16101,USA
577,-90.19875001161999,29.977110000327002,New Orleans H-D,504-736-9600,6015 Airline Dr,Metairie,LA,70003,USA
578,-81.01072995923,38.126760022714,New River Gorge H-D,304-658-3300,25385 Midland Tr,Hico,WV,25854,USA
579,-77.47886803931999,34.719130983576,New River H-D,910-346-9997,2394 Wilmington Hwy,Jacksonville,NC,28540,USA
580,-74.00299999862,40.717920027673,New York City H-D,212-233-4369,374 Broadway,New York,NY,10013,USA
581,-83.18849701434,40.124025978147,No Cages H-D,614-764-2453,7610 Commerce Pl,Plain City,OH,43064,USA
582,-77.71031904034001,40.789333004504,No.1 Cycle Center H-D,814-364-1340,107 Yearicks Blvd,Centre Hall,PA,16828,USA
583,-122.3422799818,48.460030015558004,North Cascades H-D,360-757-1515,1337 Goldenrod Rd,Burlington,WA,98233,USA
584,-69.66287098824,44.34119498357099,North Country H-D,207-622-7994,3099 N Belfast Ave,Augusta,ME,04330,USA
585,-73.50341099314001,44.696165984496005,North End H-D,518-563-4360,568 SR 3,Plattsburgh,NY,12901,USA
586,-122.769342,47.061929,Northwest H-D,800-694-6447,8000 Freedom Ln NE,Lacey,WA,98516,USA
587,-89.69609599559999,45.931876022368,Northwoods H-D,715-358-5054,1700 US 51,Arbor Vitae,WI,54568,USA
588,-74.47617100551,41.571922972798,O'Toole's H-D,845-888-2426,4 Sullivan St,Wurtsboro,NY,12790,USA
589,-122.19996901219999,37.73056003265,Oakland H-D,510-635-0100,151 Hegenberger Rd,Oakland,CA,94621,USA
590,-71.65584599599,41.572789996862,Ocean State H-D Shop,401-392-1162,435 Nooseneck Hill Rd,Exeter,RI,02822,USA
591,-106.33783701799999,42.858567992225,Oil City H-D,307-265-3211,831 N Glenn Rd,Casper,WY,82601,USA
592,-95.12692501768,43.391201980412,Okoboji H-D,712-332-7700,1005 Eastview Ave,Okoboji,IA,51355,USA
593,-77.498284,38.250696000000005,Old Dominion H-D,540-376-7833,5224 Jefferson Davis Hwy,Fredericksburg,VA,22408,USA
594,-94.39714003354,35.321805998681995,Old Fort H-D,479-648-9004,6304 S 36th St,Ft Smith,AR,72908,USA
595,-76.83683303184,39.052016017958,Old Glory H-D,301-575-0575,11800 Laurel Bowie Rd,Laurel,MD,20708,USA
596,-110.8309279661,32.206704961135,Old Pueblo H-D,520-579-6767,7503 E 22nd St,Tucson,AZ,85710,USA
597,-118.50501000879999,34.411628041416,Old Road H-D,661-964-0506,21130 Centre Pointe Pky,Santa Clarita,CA,91350,USA
598,-88.48299102857,43.776485966518,Open Road H-D,920-921-2344,24 S Rolling Meadows Dr,Fond du Lac,WI,54937,USA
599,-117.7411810029,33.644670993089,Orange County H-D,949-727-4464,8677 Research Dr,Irvine,CA,92618,USA
600,-81.42500996589001,28.505049990490004,Orlando H-D,407-423-0346,3770 37th St,Orlando,FL,32805,USA
601,-81.59848996438001,28.339692978188,Orlando H-D South,407-944-3700,7786 W Irlo Bronson Memorial Hwy,Kissimmee,FL,34747,USA
602,-75.81351002678001,36.100793005898,Outer Banks H-D,252-338-8866,8739 Hwy 158,Harbinger,NC,27941,USA
603,-94.29670002310999,39.034106992185,Outlaw H-D,816-224-5005,3100 NW Jefferson,Blue Springs,MO,64015,USA
604,-104.61650398549999,38.325839024037,Outpost H-D,719-542-6032,5001 N Elizabeth,Pueblo,CO,81008,USA
605,-120.5106130242,46.623427961021,Owens H-D,509-575-1916,1707 N 1st St,Yakima,WA,98901,USA
606,-92.6643879991,37.651845999062,Ozark H-D,417-532-2900,2300 Evergreen Pkwy,Lebanon,MO,65536,USA
607,-122.684999,45.529387,PDX Speed Shop H-D,971-808-5153,1313 NW Kearney St,Portland,OR,97209,USA
608,-80.09481903165,26.759414970874,Palm Beach H-D,561-659-4131,2955 45th St,West Palm Beach,FL,33407,USA
609,-116.54553302564,33.908101972192995,Palm Springs H-D,866-574-4035,19465 N Indian Canyon Dr,North Palm Springs,CA,92258,USA
610,-122.7805120311,45.442002983763,Paradise H-D,503-924-3700,10770 SW Cascade Ave,Tigard,OR,97223,USA
611,-95.52349397911999,33.674807036295,Paris H-D,855-727-4743,2875 NE Loop 286,Paris,TX,75460,USA
612,-77.28124598040999,38.863769033923,Patriot H-D,703-352-5400,9739 Fairfax Blvd,Fairfax,VA,22031,USA
613,-76.17058999836,43.056845013052,Performance H-D,315-471-1157,807 N Geddes St,Syracuse,NY,13204,USA
614,-85.53881996311,42.238522991538,Perry H-D,269-329-3450,5331 S Sprinkle Rd,Portage,MI,49002,USA
615,-100.3568890225,44.365747002884,Petersen Motors H-D,605-224-4242,422 S Fort St,Pierre,SD,57501,USA
616,-80.3647230193,25.583405038341,Peterson's H-D South,305-235-4023,19825 S Dixie Hwy,Miami,FL,33157,USA
617,-80.2058599703,25.953072030096997,Peterson's H-D of Miami,305-651-4811,19400 NW 2nd Ave,Miami,FL,33169,USA
618,-79.4291169662,43.841794990003,Pfaff H-D,866-977-1340,8779 Yonge St,Richmond Hill,ON,L4C 6Z1,CAN
619,-87.84907003864001,41.254190001636,Phantom H-D,815-468-8673,291 Cypress St,Manteno,IL,60950,USA
620,-94.15440103969999,36.356053976342004,Pig Trail H-D,479-636-9797,2409 Hudson Rd,Rogers,AR,72756,USA
621,-104.81526103799999,38.91377496533,Pikes Peak H-D,719-278-2300,5867 N Nevada Ave,Colorado Springs,CO,80918,USA
622,-84.20556401833001,40.150268040597,Piqua H-D,937-773-8733,1501 E Ash St,Piqua,OH,45356,USA
623,-98.33959300071,40.895281014963004,Platte River H-D,308-382-7020,2719 S Locust,Grand Island,NE,68801,USA
624,-68.00373997539,46.867585005238,Plourde's H-D,207-496-3211,11 Laurette St,Caribou,ME,04736,USA
625,-75.2938789688,40.947885001078,Pocono Mountain H-D,570-992-7500,4300 Manor Dr,Stroudsburg,PA,18360,USA
626,-79.69561800000001,43.448671000000004,Policaro H-D Oakville,905-825-7866,191 Wyecroft Rd,Oakville,ON,L6K 3S3,CAN
627,-117.690462023,34.095359975472,Pomona Valley H-D,909-981-9500,8710 Central Ave,Montclair,CA,91763,USA
628,-84.25957700237,39.355937037616,Powder Keg H-D,513-204-6962,2383 Kings Center Ct,Mason,OH,45040,USA
629,-104.61650499139999,50.457134032621,Prairie H-D,306-522-1747,1355 McIntyre St,Regina,SK,S4R 2M9,CAN
630,-71.36551799252,41.880548000335004,Precision H-D,401-724-0010,269 Armistice Blvd,Pawtucket,RI,02860,USA
631,-71.03590702638,46.454331027342995,Premont H-D Beauce,418-387-8066,1083 boul Vachon N,Sainte-Marie,QC,G6E 1M8,CAN
632,-73.78738400526,45.561468992382004,Premont H-D Laval,877-459-2950,4501 Autoroute 440 Ouest,Laval,QC,H7P 4W6,CAN
633,-63.674524035299996,44.638940971344006,Privateers H-D,902-444-4647,74 Hobson Lake Dr,Halifax,NS,B3S 0G4,CAN
634,-71.27698699012,46.828721975907,Prémont H-D,418-683-1340,1071 Pierre-Bertrand Blvd,Quebec,QC,G1M 2E8,CAN
635,-117.2553900349,34.063286036251995,Quaid H-D,909-796-8399,25160 Redlands Blvd,Loma Linda,CA,92354,USA
636,-84.51267502270001,39.328441964462,Queen City H-D,513-874-4343,5960 Dixie Hwy,Fairfield,OH,45014,USA
637,-71.15899703465,48.402265040203,RPM Moto Plus,418-699-7766,2510 rue Dubose,Jonquière,QC,G7S 1B4,CAN
638,-78.86251003481,35.995280016213,Raging Bull H-D,919-596-9511,300 Muldee St,Durham,NC,27703,USA
639,-60.25074499659,46.126974960789006,Ramsay's Cycle & Sport,902-539-1730,616 Keltic Dr,Sydney,NS,B1L 1B6,CAN
640,-119.16829900809999,46.191717032343,Rattlesnake Mountain H-D,509-735-1117,3305 W 19th Ave,Kennewick,WA,99338,USA
641,-94.78954603895001,38.891912028193005,Rawhide H-D,913-764-7433,725 N Rawhide Rd,Olathe,KS,66061,USA
642,-83.32188603468,43.018415998667,Ray C's H-D of Lapeer,810-664-4505,1491 S Lapeer Rd,Lapeer,MI,48446,USA
643,-98.55502501129999,33.949608989059,Red River H-D,940-264-7743,4514 Northwest Fwy,Wichita Falls,TX,76306,USA
644,-63.19359901361,46.256251987069,Red Rock H-D Cornwall,902-368-8324,18 Warren Grove Rd,Cornwall,PE,C0A 1H8,CAN
645,-115.2426230069,36.146014966070005,Red Rock H-D Las Vegas,702-876-2884,2260 S Rainbow Blvd,Las Vegas,NV,89146,USA
646,-122.3658600356,40.624849973246,Redding H-D,855-751-2245,1268 Twin View Blvd,Redding,CA,96003,USA
647,-106.6643699817,52.130735982208996,Redline H-D,306-934-2750,102 23rd St E,Saskatoon,SK,S7K 0J2,CAN
648,-86.85221197083,34.638401018455,Redstone H-D,256-340-7333,15100 Hwy 20 W,Madison,AL,35756,USA
649,-124.1444129683,40.803778963163,Redwood H-D,707-444-0111,2500 6th St,Eureka,CA,95501,USA
650,-90.07222602143,43.814726974814995,Reel Brothers H-D,608-847-7702,N4833 SR 58,Mauston,WI,53948,USA
651,-89.92496101185,41.250500958412,Reiman's H-D,866-777-9377,623 N Main St,Kewanee,IL,61443,USA
652,-95.58387301862,29.636143986135,Republic H-D,281-295-1000,12707 Southwest Fwy,Stafford,TX,77477,USA
653,-91.75015001556999,45.474038030951995,Rice Lake H-D,715-234-5400,2801 S Wisconsin Ave,Rice Lake,WI,54868,USA
654,-77.45298396795,37.72965202108,Richmond H-D,804-752-2800,12200 Harley Club Dr,Ashland,VA,23005,USA
655,-86.6129399836,33.641707990318,Riders H-D,205-655-1234,4750 Norrell Dr,Trussville,AL,35173,USA
656,-79.96056,36.062490000000004,Riding High H-D,336-273-1101,3036 NC68,High Point,NC,27265,USA
657,-117.40857300340001,33.932631025090004,Riverside H-D,888-495-2418,7688 Indiana Ave,Riverside,CA,92504,USA
658,-80.00659396870999,37.309630997477996,Roanoke Valley H-D,888-387-0389,1925 Peters Creek Rd,Roanoke,VA,24017,USA
659,-92.33826398849001,44.002771032974,Rochester H-D,507-288-9050,7180 US 14 E,Rochester,MN,55904,USA
660,-92.3805709742,34.670575959607,Rock City H-D,855-604-8247,10210 I-30,Little Rock,AR,72209,USA
661,-81.8020299822,41.419874997809,Rock-n-Roll City H-D,216-252-3111,4985 W 150th St,Cleveland,OH,44135,USA
662,-105.0260099954,39.567139036953,Rocky Mountain H-D,866-562-7803,2885 W County Line Rd,Littleton,CO,80129,USA
663,-83.57776198536,35.805158000439,Rocky Top H-D,865-774-3445,105 Waldens Main St,Pigeon Forge,TN,37863,USA
664,-81.20498802511999,42.927157022058,Rocky's H-D,519-438-1450,900 Wilton Grove Rd,London,ON,N6N 1C7,CAN
665,-76.53149999678,38.985679959878,Rommel H-D Annapolis,410-263-3345,30 Hudson St,Annapolis,MD,21401,USA
666,-75.59302900917,38.670617965981,Rommel H-D Delmarva,302-629-6161,22586 Sussex Hwy,Seaford,DE,19973,USA
667,-75.58844000101,39.277868997305,Rommel H-D Smyrna,302-659-6400,450 Stadium St,Smyrna,DE,19977,USA
668,-73.24694596229999,42.473909966647,Ronnie's H-D,413-443-0638,501 Wahconah St,Pittsfield,MA,01201,USA
669,-96.37345097958999,42.510005040094,Rooster's H-D,712-252-2750,1930 N US-75,Sioux City,IA,51105,USA
670,-82.44949000886999,27.332779979333,Rossiter's H-D,941-951-6103,330 Cattlemen Rd,Sarasota,FL,34232,USA
671,-94.73068797959999,32.544880975036996,Roughneck H-D,903-663-3838,3400 N 4th St,Longview,TX,75605,USA
672,-100.84373401469999,46.815096018835,Roughrider H-D,701-663-2220,3708 Memorial Hwy,Mandan,ND,58554,USA
673,-78.41476703993,40.437805959954,Roundhouse H-D,814-696-7433,495 Municipal Dr,Duncansville,PA,16635,USA
674,-83.27319103293,40.857233041897004,Route 30 H-D,419-294-4951,350 Tarhe Tr,Upper Sandusky,OH,43351,USA
675,-87.75943798944,43.715278040617,Route 43 H-D,920-458-0777,3736 S Taylor Dr,Sheboygan,WI,53081,USA
676,-93.55794900096001,41.348155997693,Route 65 H-D Shop,515-962-2160,1300 S Jefferson Way,Indianola,IA,50125,USA
677,-95.88632896541999,36.110949022694996,Route 66 H-D,918-622-1340,3637 S Memorial Dr,Tulsa,OK,74145,USA
678,-81.48509697988001,41.117877038195,Rubber City H-D,330-535-9900,1120 Main St,Cuyahoga Falls,OH,44221,USA
679,-71.437895,41.749578,Russ' Ocean State H-D,401-781-6866,35 Albany Rd,Warwick,RI,02888,USA
680,-81.438849,39.38169,S & P H-D,304-375-2530,80 Thunder Rd,Williamstown,WV,26187,USA
681,-111.83424999,41.774857984855,Saddleback H-D Shop,435-787-8100,2359 N Main St,Logan,UT,84341,USA
682,-122.988416003,44.969458021223,Salem H-D,503-363-0634,3601 Silverton Rd NE,Salem,OR,97305,USA
683,-117.22716399999999,32.822763,San Diego H-D,858-616-6999,4645 Morena Blvd,San Diego,CA,92117,USA
684,-117.1377589926,32.835066989064,San Diego H-D Kearny Mesa,619-810-1919,5555 Kearny Villa Rd,San Diego,CA,92123,USA
685,-122.401582,37.644292,San Francisco H-D,650-737-5467,333 Corey Way,South San Francisco,CA,94080,USA
686,-95.15666401013,29.655537027864998,San Jacinto H-D,281-975-0045,3636 E Sam Houston Pkwy S,Pasadena,TX,77505,USA
687,-86.03929200209,43.468297971412,Sandy's H-D Sport Center,231-924-3020,11940 N Maple Island Rd,Fremont,MI,49412,USA
688,-106.0108159761,35.637395968659995,Santa Fe H-D,505-471-3808,4360 Rodeo Rd,Santa Fe,NM,87507,USA
689,-120.4309059865,34.978163978084,Santa Maria H-D,805-928-3668,2022 N Preisker Ln,Santa Maria,CA,93454,USA
690,-81.2849809695,32.00501801446,Savannah H-D,912-925-0005,1 Fort Argyle Rd,Savannah,GA,31419,USA
691,-76.07948097399999,40.640369988977,Schaeffer's H-D,570-366-0143,1123 Brick Hill Rd,Orwigsburg,PA,17961,USA
692,-70.83432896062,42.96189095824899,Seacoast H-D,603-964-9959,17 Lafayette Rd,North Hampton,NH,03862,USA
693,-81.33199003525,28.817880973218998,Seminole H-D,800-666-6900,620 Hickman Cir,Sanford,FL,32771,USA
694,-72.72302999160999,46.575535023584,Shawinigan H-D,819-539-1450,6013 Boul des Hetres,Shawinigan,QC,G9N 4W7,CAN
695,-71.87726603819999,42.174410987645004,Sheldon's H-D,508-721-9876,914 Southbridge St,Auburn,MA,01501,USA
696,-77.98161199316,35.400258013978,Shelton's H-D,919-731-2776,606 Corporate Dr,Goldsboro,NC,27534,USA
697,-78.3137650229,35.508889993652,Shelton's H-D Mall Shop,919-938-1592,1043 Outlet Center Dr,Smithfield,NC,27577,USA
698,-79.06451800838,38.111611995846,Shenandoah H-D,540-213-7433,213 Rolling Thunder Ln,Staunton,VA,24401,USA
699,-83.78252400085,43.251490993424994,Shiawassee H-D,989-624-4400,11901 N Beyer Rd,Birch Run,MI,48415,USA
700,-74.00619903579,40.299016982316,Shoreline H-D,732-229-8518,671 Broadway,Long Branch,NJ,07740,USA
701,-121.84142002829999,39.745869040489,Sierra Steel H-D,530-893-1918,1501 Mangrove Ave,Chico,CA,95926,USA
702,-83.60588695853001,41.549955010414,Signature H-D,419-873-2453,1176 Professional Dr,Perrysburg,OH,43551,USA
703,-92.40930003114,42.455269033088996,Silver Eagle H-D,319-235-6505,4022 Sergeant Rd,Waterloo,IA,50701,USA
704,-118.85672103610001,34.291367009282,Simi Valley H-D,805-552-9555,6190 Condor Dr,Moorpark,CA,93021,USA
705,-81.79416599683,26.54199401848,Six Bends H-D,239-275-4647,9501 Thunder Rd,Fort Myers,FL,33913,USA
706,-82.3731199745,36.373480036854,Smith Brothers H-D Sales,423-283-0422,3518 Bristol Hwy,Johnson City,TN,37601,USA
707,-80.17102696001,36.109014982357,Smokin' H-D,888-874-6708,3441 Myer Lee Dr,Winston-Salem,NC,27101,USA
708,-84.02307297103,35.755491033196,Smoky Mountain H-D Maryville,865-977-1669,1820 W Lamar Alexander Pkwy,Maryville,TN,37801,USA
709,-114.43623203780001,42.562913037836,Snake H-D,208-734-8400,2404 E Addison Ave,Twin Falls,ID,83301,USA
710,-122.7133370283,38.338122032582,Sonoma County H-D,800-400-2011,7601 Redwood Dr,Cotati,CA,94931,USA
711,-122.18338100000001,48.143403,Sound H-D,360-454-5000,16212 Smokey Point Blvd,Marysville,WA,98271,USA
712,-81.51662299409,41.418172968551005,South East H-D Sales,440-439-5300,23105 Aurora Rd,Bedford Heights,OH,44146,USA
713,-111.90438698969999,40.590168004855,South Valley H-D Shop,801-563-1100,8886 S Sandy Parkway Dr,Sandy,UT,84070,USA
714,-84.77637003175,34.239859962835,Southern Devil H-D,678-721-0203,2281 Hwy 411 NE,Cartersville,GA,30121,USA
715,-89.99683499336001,34.931706022471,Southern Thunder H-D,662-349-1099,4870 Venture Dr,Southaven,MS,38671,USA
716,-75.89888901449001,42.150341011583,Southern Tier H-D,607-773-0264,1152 Front St,Binghamton,NY,13905,USA
717,-76.15608695894,36.848287023603,Southside H-D,757-499-8964,385 N Witchduck Rd,Virginia Beach,VA,23462,USA
718,-80.65181996673,28.032733015716,Space Coast H-D,321-259-1311,1440 Sportsman Ln NE,Palm Bay,FL,32905,USA
719,-81.89110999926,35.021500010043,Spartanburg H-D,864-583-8840,365 Sha Ln,Spartanburg,SC,29307,USA
720,-80.71092797443,35.364003013819,Speedway H-D,704-979-7433,10049 Weddington Rd,Concord,NC,28027,USA
721,-73.85935999453,42.740400005131,Spitzie's H-D,518-456-7433,1970 Central Ave,Albany,NY,12205,USA
722,-91.43011000938,44.879234964027994,Sport Motors H-D,715-723-7433,2452 Hallie Rd,Chippewa Falls,WI,54729,USA
723,-90.56158902123,38.793100034818,St Charles H-D,636-946-6487,3808 W Clay,St Charles,MO,63301,USA
724,-92.52903996035,45.158732961863,St Croix H-D,715-246-2959,2060 SR 65 N,New Richmond,WI,54017,USA
725,-94.79494096711001,39.725275039672,St Joe H-D,816-233-9061,4020 S 169th Hwy,St Joseph,MO,64503,USA
726,-92.97908999025,44.948781039565,St Paul H-D,651-738-2168,2899 Hudson Blvd,St Paul,MN,55128,USA
727,-97.31528403237,32.546231970191,Stampede H-D,855-431-8250,240 N Burleson Blvd,Burleson,TX,76028,USA
728,-78.18892001174,43.02926000207599,Stan's H-D,585-343-9598,4425 W Saile Dr,Batavia,NY,14020,USA
729,-88.82440002635,41.375042041763,Starved Rock H-D,815-431-1900,750 Centennial Dr,Ottawa,IL,61350,USA
730,-80.19673601724,40.211172038689,Steel City H-D,724-225-7020,1375 Washington Rd,Washington,PA,15301,USA
731,-77.60669801384,37.434787983074,Steel Horse H-D,877-774-0895,11501 Hull Street Rd,Midlothian,VA,23112,USA
732,-81.79708801209,41.138385040685,Stinger H-D,330-721-1702,3053 Eastpointe Dr,Medina,OH,44256,USA
733,-78.09682100079,38.243100000545,Stone Wall H-D,540-672-5550,385 Waugh Blvd,Orange,VA,22960,USA
734,-81.73701097257,28.535503037273003,Stormy Hill H-D,352-243-7111,2480 S US 27,Clermont,FL,34711,USA
735,-80.25955997407,41.613810025155,Street Track'n Trail H-D,814-382-4821,13723 US6,Conneaut Lake,PA,16316,USA
736,-95.30204602517,29.699085038154998,Stubbs H-D,713-568-9945,4400 Telephone Rd,Houston,TX,77087,USA
737,-98.71062599122,46.882487023249,Stutsman H-D,701-252-5271,2501 3rd Ave SW,Jamestown,ND,58401,USA
738,-87.98396201804,43.232372961938,Suburban Motors H-D,262-242-2464,139 N Main St,Thiensville,WI,53092,USA
739,-73.14025900326,40.74828104116,Suffolk County H-D,631-244-9000,4020 Sunrise Hwy,Oakdale,NY,11769,USA
740,-80.164617,33.022402,Summerville H-D,843-285-5164,386 E 5th North St,Summerville,SC,29483,USA
741,-104.9791789613,39.857074012979005,Sun H-D,303-900-4819,8858 Pearl St,Thornton,CO,80229,USA
742,-111.5787560027,33.415459971874,Superstition H-D,480-346-0600,2910 W Apache Tr,Apache Junction,AZ,85120,USA
743,-76.78155002184,40.324910022318,Susquehanna Valley H-D,717-810-1993,6300 US22,Harrisburg,PA,17112,USA
744,-87.44889501482001,33.174828020854996,T Town H-D,205-632-6835,6401 Interstate Dr,Cottondale,AL,35453,USA
745,-72.45491000823002,41.926100039854,TSI H-D,860-875-6663,398 Somers Rd,Ellington,CT,06029,USA
746,-92.45069003663001,31.277478961274,Taboo H-D,888-807-1688,2030 N Mall Dr,Alexandria,LA,71301,USA
747,-83.98464999161,42.007610024884,Tecumseh H-D Shop,517-423-3333,8080 Matthews Hwy,Tecumseh,MI,49286,USA
748,-90.15388101339,38.934108037501,Ted's H-D of Alton,888-695-4740,4103 Humbert Rd,Alton,IL,62002,USA
749,-117.14391499999999,33.4852935,Temecula H-D,951-506-6903,28964 Old Town Front St,Temecula,CA,92590,USA
750,-95.46736699528,30.334637984633,Texan H-D,936-539-1726,2111 N Frazier,Conroe,TX,77301,USA
751,-97.135221,32.838516,Texas H-D,817-267-2646,1 Texas Harley Way,Bedford,TX,76021,USA
752,-96.60925202070999,33.68005502969,Texoma H-D,903-892-2530,4000 N US 75,Sherman,TX,75090,USA
753,-78.73012499883001,33.801750959828,The H-D Shop at the Beach,843-663-5555,4002 US 17,North Myrtle Beach,SC,29582,USA
754,-86.8955520261,41.651314012705996,The H-D Shop of Michigan City,219-878-8885,2968 N US 421,Michigan City,IN,46360,USA
755,-96.27614898607,30.574521012604,The Ranch H-D,979-690-1669,4101 TX-6 S,College Station,TX,77845,USA
756,-81.00562001578,46.445652991533,The Rock H-D,855-682-4464,2240 Long Lake Rd,Sudbury,ON,P3E 5H4,CAN
757,-84.64898798614,38.999101985245,Thoroughbred H-D Shop,859-282-2111,8025 Action Blvd,Florence,KY,41042,USA
758,-79.95075004175,40.526850018649995,Three Rivers H-D,412-487-3377,1463 Glenn Ave,Glenshaw,PA,15116,USA
759,-89.29702403023,48.380678035318006,Thunder Bay H-D,807-577-6221,636 Arthur St W,Thunder Bay,ON,P7E 5R8,CAN
760,-80.48482001759,41.233083028346,Thunder H-D,724-981-7282,1344 E State St,Sharon,PA,16146,USA
761,-104.99551001,40.437809983268,Thunder Mountain H-D,866-646-6296,4250 Byrd Dr,Loveland,CO,80538,USA
762,-79.45904300000001,36.591373,Thunder Road H-D,434-822-2453,4870 Riverside Dr,Danville,VA,24541,USA
763,-83.05174802428999,42.276925016194,Thunder Road H-D Windsor,519-966-1520,2139 Huron Church Rd,Windsor,ON,N9C 2L8,CAN
764,-80.83609099499,34.104308998212,Thunder Tower H-D,803-461-1121,190 Pontiac Bus Ctr Dr,Columbia,SC,29045,USA
765,-84.34517702087,33.575226003304,Thunder Tower West H-D,770-960-6000,1384 Southlake Pky,Morrow,GA,30260,USA
766,-106.58968797879999,35.184306995943,Thunderbird H-D,505-856-1600,5000 Alameda Blvd NE,Albuquerque,NM,87113,USA
767,-83.52686899714001,31.438792040571,Tifton H-D,229-387-8855,49 Casseta Rd,Tifton,GA,31793,USA
768,-80.86062197573001,35.764259006828,Tilley H-D,704-872-3883,1226 Morland Dr,Statesville,NC,28677,USA
769,-80.46525296755,35.653224019333,Tilley H-D of Salisbury,704-638-6044,653 Bendix Dr,Salisbury,NC,28146,USA
770,-90.44503203593,38.180096000432,Tim Surdyke?s Gold Star H-D,636-931-8700,2435 US 67 S,Festus,MO,63028,USA
771,-82.69120498560001,34.560022009536,Timms H-D,864-224-1531,4110 Clemson Blvd,Anderson,SC,29621,USA
772,-82.1166700311,33.485249960795,Timms H-D of Augusta,706-651-0444,4200 Belair Frontage Rd,Augusta,GA,30909,USA
773,-111.7356909625,40.32639697194,Timpanogos H-D,801-434-4647,555 S Geneva Rd,Lindon,UT,84042,USA
774,-92.42363903671,35.094016967341,Toad Suck H-D,844-606-3321,1110 Collier Dr,Conway,AR,72032,USA
775,-78.64940299652,35.765001978724996,Tobacco Road H-D,919-832-2261,1126 S Saunders St,Raleigh,NC,27603,USA
776,-83.73439603485,41.673799976706,Toledo H-D,419-843-7892,7960 W Central Ave,Toledo,OH,43617,USA
777,-118.6083980184,34.201126014813,Top Rocker H-D,818-999-3355,22107 Sherman Way,Canoga Park,CA,91303,USA
778,-84.35655696317,42.048291005194,Town & Country Sports Center H-D,517-547-3333,28655 US 12,Cement City,MI,49233,USA
779,-64.84293300658001,46.063668038696,Toys For Big Boys,506-858-8088,633 Salisbury Rd,Moncton,NB,E1E 1B9,CAN
780,-114.4247569609,62.434916999190996,Trails End H-D,867-873-8322,213 Utsingi Dr,Yellowknife,NT,X1A 2P6,CAN
781,-74.95866000651999,40.926390029489,Tramontin H-D,908-459-4101,482 Hope Blairstown Rd,Hope,NJ,07844,USA
782,-80.21277403458001,27.144434005022003,Treasure Coast H-D of Stuart,772-287-3871,4967 SE Federal Hwy,Stuart,FL,34997,USA
783,-123.0239299591,49.267539968714,Trev Deeley Motorcycles,604-291-2453,1875 Boundary Rd,Vancouver,BC,V5M 3Y7,CAN
784,-80.01358900219,39.658619966357,Triple S H-D,304-284-8244,7300 Willie G Ave,Morgantown,WV,26501,USA
785,-101.9057160336,35.190432993695005,Tripp's H-D,806-352-2021,6040 I-40 W,Amarillo,TX,79106,USA
786,-111.0703990235,32.340510981156996,Tucson H-D,520-751-3380,7355 N I-10 E Frontage Rd,Tucson,AZ,85743,USA
787,-93.28257003799,44.710159990936006,Twin Cities H-D Lakeville,952-898-4515,10770 165th St W,Lakeville,MN,55044,USA
788,-93.237975,45.148324,Twin Cities H-D North,800-234-4843,1355 98th Ave NE,Blaine,MN,55449,USA
789,-72.28584299795,43.636756958438994,Twin States H-D,603-448-4664,351 Miracle Mile,Lebanon,NH,03766,USA
790,-97.32269103638001,37.78221996501,Twister City H-D,316-440-5700,5427 N Chuzy Dr,Wichita,KS,67219,USA
791,-87.95224003493,42.582989959046,Uke's H-D,262-857-8537,5995 120th Ave,Kenosha,WI,53144,USA
792,-75.419431,40.113802,Valley Forge H-D,610-666-5122,1217 S Trooper Rd,Norristown,PA,19403,USA
793,-80.59214,40.063952,Valley H-D,304-243-9300,127 Fort Henry Rd,Triadelphia,WV,26059,USA
794,-81.05501297861,40.057504009455,Valley H-D Shop,740-695-9591,41255 Reco Rd,Belmont,OH,43718,USA
795,-88.06189703755,44.557877993211,Vandervest H-D Green Bay,920-498-8822,1966 Velp Ave,Green Bay,WI,54303,USA
796,-83.73922300525,42.991585023701,Vehicle City H-D,810-234-6646,2400 Austins Pkwy,Flint,MI,48507,USA
797,-119.1053100116,34.222301971167,Ventura H-D,805-981-9904,1326 Del Norte Rd,Camarillo,CA,93010,USA
798,-97.00683100149,28.804991031065,Victoria H-D,361-575-7881,608 N Moody St,Victoria,TX,77901,USA
799,-94.23543401062,46.35277303867001,Viking Land H-D Baxter,218-822-4434,7915 MN-210,Baxter,MN,56425,USA
800,-94.08924004063,45.58155898936,Viking Land H-D Sauk Rapids,320-251-6980,3555 Shadowwood Dr NE,Sauk Rapids,MN,56379,USA
801,-119.42497299979999,36.34707301855,Visalia H-D,559-733-4647,30681 CA-99,Visalia,CA,93291,USA
802,-73.492961,45.734442,Vision H-D,888-743-9877,47 Rue De Lyon,Repentigny,QC,J5Z 4Z3,CAN
803,-111.34096400809999,56.667234962806,Voigt H-D,780-715-9402,284 MacDonald Cresent,Fort McMurray,AB,T9H 4B6,CAN
804,-76.49739503859999,40.978505015373,Vreeland's H-D,570-784-2453,317 Montour Blvd,Bloomsburg,PA,17815,USA
805,-89.68983102589,40.682229967787,Walters Brothers H-D,309-697-1917,615 S Maxwell Rd,Peoria,IL,61607,USA
806,-82.15189397335,29.241779968141998,War Horse H-D,352-732-2488,5331 N US 441,Ocala,FL,34475,USA
807,-80.77549695968,41.274487031623,Warren H-D Sales,330-395-4700,2102 Elm Rd,Cortland,OH,44410,USA
808,-91.47664197719999,43.240256980061,Waukon H-D,563-568-3471,208 IA-9 SW,Waukon,IA,52172,USA
809,-88.22217000648001,43.427859982475006,West Bend H-D,262-338-8761,2910 W Washington St,West Bend,WI,53095,USA
810,-121.6533059813,36.683678012341,West Coast H-D,831-731-5066,333 N Main St,Salinas,CA,93901,USA
811,-81.33376196958,41.685584010556,Western Reserve H-D,440-974-6900,8567 Tyler Blvd,Mentor,OH,44060,USA
812,-85.13015,35.061679,White Lightning H-D,423-892-4888,7720 Lee Hwy,Chattanooga,TN,37421,USA
813,-71.11306102015,44.013956012204,White Mountain H-D,603-356-7775,1275 NH-16,North Conway,NH,03860,USA
814,-76.38506999239,40.349059961736,White's H-D,717-272-4986,1515 E Cumberland St,Lebanon,PA,17042,USA
815,-90.51731698215,41.575771020725,Wiebler's Quad Cities H-D,563-355-6437,5320 Corporate Park Dr,Davenport,IA,52807,USA
816,-87.98016401007,41.905832011251995,Wild Fire H-D,630-834-6571,120 W North Ave,Villa Park,IL,60181,USA
817,-93.43464399687001,44.866062970831,Wild Prairie H-D,952-698-5000,12480 Plaza Dr,Eden Prairie,MN,55344,USA
818,-101.9377779867,33.541308967396,Wild West H-D,806-791-4597,5702 58th St,Lubbock,TX,79424,USA
819,-84.09174799919,37.143957987427,Wildcat H-D,606-862-5656,575 E Hal Rogers Pky,London,KY,40741,USA
820,-121.3030499685,44.088918976485004,Wildhorse H-D,541-330-6228,63028 Sherman Rd,Bend,OR,97703,USA
821,-72.51035504043,44.167545000090996,Wilkins H-D,802-476-6104,663 S Barre Rd,Barre,VT,05641,USA
822,-74.8122360371,40.644706031307,Williams H-D,908-236-0767,1100 US 22 W,Lebanon,NJ,08833,USA
823,-98.37759302929001,34.604514995589,Wind River H-D,580-353-5088,301 SE Interstate Dr,Lawton,OK,73501,USA
824,-88.47312703728001,43.064408004282996,Wisconsin H-D,262-569-8500,1280 Blue Ribbon Dr,Oconomowoc,WI,53066,USA
825,-82.8625679668,42.626146031543,Wolverine H-D,586-463-7700,44660 N Gratiot Ave,Clinton Township,MI,48036,USA
826,-88.43301401472999,42.288851039484,Woodstock H-D,815-337-3511,2235 S Eastwood Dr,Woodstock,IL,60098,USA
827,-74.08634997904001,41.983816986903,Woodstock H-D Kingston,855-743-3943,949 NY-28,Kingston,NY,12401,USA
828,-89.68866099603001,41.762378001585,Workman H-D,815-626-1213,1903 IL-40,Rock Falls,IL,61071,USA
829,-94.66289103961999,39.263577014207,Worth H-D,800-799-2453,9400 NW Prairie View Rd,Kansas City,MO,64153,USA
830,-72.92736997827,41.689440021291,Yankee H-D,855-427-5393,488 US-6,Bristol,CT,06010,USA
831,-93.25102801434,38.686056006699,Yeager Cycle Sales,660-826-2925,3001 S US-65,Sedalia,MO,65301,USA
832,-111.17583498350001,45.764496959744996,Yellowstone H-D,877-388-7684,540 Alaska Frontage Rd,Belgrade,MT,59714,USA
833,-79.58361698314,40.304771997034,Z & M H-D Sales,724-837-9404,6130 US-30,Greensburg,PA,15601,USA
834,-78.8619070407,40.267071034759,Zepka H-D,814-262-7777,960 Eisenhower Blvd,Johnstown,PA,15904,USA
835,-113.4464059676,37.162700006738,Zion H-D Shop,435-673-5100,2345 N Coral Canyon Blvd,Washington,UT,84780,USA
836,-84.68238702043,45.017695035784996,Zips 45th Parallel H-D,866-667-8443,980 S Wisconsin Ave,Gaylord,MI,49735,USA
837,-93.58646096660999,42.03434402123,Zylstra H-D Ames,515-232-6223,1930 E 13th St,Ames,IA,50010,USA
838,-93.55956100858,45.327595034614,Zylstra H-D Elk River,763-241-2000,19600 Evans St NW,Elk River,MN,55330,USA
840,-81.31289999932,29.89419998601,*Adamec H-D of St. Augustine,904-825-0544,118 St George St,St. Augustine,FL,32084,USA

