index,long,lat,name,info
0,-86.80197,33.3757,"Whole Foods-Hoover,AL","3780 Riverchase Village, Hoover,AL 35244, (205) 730-2680|7am to 10pm Seven Days a Week"
1,-86.5904161,34.712443,"Whole Foods-Huntsville,AL","2501 Memorial Pkwy SW, Huntsville,AL 35801, (256) 801-3741|8am to 9pm Seven Days A Week"
2,-88.1504613,30.6761375,"Whole Foods-Mobile,AL","3968 Airport Blvd, Mobile,AL 36608, (251) 206-7028|8:00 a.m. to 9:00 p.m. Seven days a week"
3,-86.1714041,32.3578148,"Whole Foods-Montgomery,AL","1450 Taylor Rd, Montgomery,AL 36117, (334) 523-2940|8:00am - 9:00pm Mon-Sun"
4,-94.1450778,36.1135626,"Whole Foods-Fayetteville,AR","3425 N College Avenue, Fayetteville,AR 72703, (479) 695-5561|STORE: 8am10pm seven days a week; TAPROOM: 3pm10pm"
5,-92.40598299999999,34.750473,"Whole Foods-Little Rock,AR","501 Bowman Road, Little Rock,AR 72211, (501) 221-2331|7:30am to 10:0pm. Seven days a week."
6,-111.892393,33.320132,"Whole Foods-Chandler,AZ","2955 West Ray Road, Chandler,AZ 85224, (480) 821-9447|Open Daily 7:00am -10:00pm"
7,-111.6410751,35.1913071,"Whole Foods-Flagstaff,AZ","320 S Cambridge Lane, Flagstaff,AZ 86001, (928) 774-5747|Open Daily 7am to 9pm"
8,-111.97813400000001,33.584612,"Whole Foods-Phoenix,AZ","10810 N Tatum Blvd, Phoenix,AZ 85028, (602) 569-7600|7am to 10pm seven days a week"
9,-112.037912,33.506196,"Whole Foods Market-Phoenix,AZ","4701 N 20th Street, Phoenix,AZ 85016, (602) 761-4750|7am - 10pm seven days a week"
10,-111.92735400000001,33.654928000000005,"Whole Foods-Phoenix,AZ","7111 E Mayo Blvd, Phoenix,AZ 85054, (480) 515-3777|7am to 10pm Seven days a week"
11,-111.7852765,34.8629323,"Whole Foods-Sedona,AZ","1420 West Hwy 89A, Sedona,AZ 86336, (928) 282-6311|8am - 9pm Monday-Saturday"
12,-111.92969099999999,33.379517,"Whole Foods-Tempe,AZ","5120 S Rural Rd, Tempe,AZ 85282, (480) 456-1400|OPEN DAILY - 7am to 10pm Juice Bar open 7am to 9pm."
13,-110.92153300000001,32.235935,"Whole Foods-Tucson,AZ","3360 E Speedway Blvd, Tucson,AZ 85716, (520) 795-9844|7am - 10pm"
14,-110.873985,32.273719,"Whole Foods-Tucson,AZ","5555 E River Road, Tucson,AZ 85750-1949, (520) 461-1300|7:00 a.m. to 10:00 p.m. Seven days a week."
15,-110.97815200000001,32.335801000000004,"Whole Foods-Tucson,AZ","7133 N Oracle Rd, Tucson,AZ 85704, (520) 352-0111|7:00 am - 10:00 pm Daily"
16,-123.00521979999999,49.2662909,"Whole Foods-Burnaby,BC","4420 Lougheed Highway, Burnaby,BC V5C 3Z3, (604) 205-5032|7:00 am to 10:00 pm. Seven days a week"
17,-123.06613159999999,49.2501488,"Whole Foods-North Vancouver,BC","120 East Vancouver,BC V7L 4W8, (604) 983-1014|8:00 am to 10:00 pm. Seven 7 a week"
18,-123.13319299999999,49.290233,"Whole Foods-Vancouver,BC","1675 Robson Street, Vancouver,BC V6G 1C8, (604) 687-5288|7:30 am to 10 pm. Seven days a week"
19,-123.15691799999999,49.268388,"Whole Foods-Vancouver,BC","2285 West 4th Avenue, Vancouver,BC V6K 1N9, (604) 739-6676|7:30am to 10:00 pm. Seven days a week"
20,-123.11525800000001,49.264039000000004,"Whole Foods-Vancouver,BC","510 West 8th Avenue, Vancouver,BC V5Z 1C5, (778) 370-4210|Store hours 7am-10pm/ Allegro Cafe 6am-9pm (Monday to Friday); 7am-9pm (Weekends)."
21,-123.376,48.4569895,"Whole Foods-Victoria,BC","3587 Blanshard St, Victoria,BC V8Z 0B9, (250) 382-9800|7am to 10pm. Seven days a week"
22,-123.14256599999999,49.325598,"Whole Foods-West Vancouver,BC","925 Main St, West Vancouver,BC V7T 2Z3, (604) 678-0500|7am to 10pm seven days a week"
23,-122.29720359999999,37.8802485,"Whole Foods-Berkeley,CA","1025 Gilman Street, Berkeley,CA 94710, (510) 809-8293|8am-10pm seven days a week."
24,-122.25983400000001,37.85609,"Whole Foods-Berkeley,CA","3000 Telegraph Ave, Berkeley,CA 94705, (510) 649-1333|8am to 10pm seven days a week."
25,-118.39785900000001,34.069018,"Whole Foods-Beverly Hills,CA","239 North Crescent Dr, Beverly Hills,CA 90210, (310) 274-3360|7am to 10pm seven days a week"
26,-117.85212479999998,33.9097336,"Whole Foods-Brea,CA","3301 Imperial Hwy, Brea,CA 92823, (714) 528-7400|7:00 a.m. - 10:00 p.m. Daily"
27,-118.33713999999999,34.1544,"Whole Foods-Burbank,CA","3401 West Olive Avenue, Burbank,CA 91505, (818) 239-5380|7:00am to 10:00pm. Seven days a week"
28,-121.93155,37.29278,"Whole Foods Market-Campbell,CA","1690 South Bascom Ave, Campbell,CA 95008, (408) 371-5000|8am to 10pm - 7 days a week"
29,-121.963826,36.974334999999996,"Whole Foods-Capitola,CA","1710 41st Avenue, Capitola,CA 95010, (831) 464-2900|8am to 9pm seven days a week"
30,-122.0584366,37.974436600000004,"Whole Foods 365-Concord,CA","2085 Diamond Blvd, Concord,CA 94520, (925) 695-3180|8:00am to 10:00pm. Seven days a week."
31,-122.03990900000001,37.323128999999994,"Whole Foods Market-Cupertino,CA","20955 Stevens Creek Blvd, Cupertino,CA 95014, (408) 257-7000|Open 8am-10pm. Coffee"
32,-117.250041,32.980821,"Whole Foods-Del Mar,CA","2600 Via De La Valle, Del Mar,CA 92014, (858) 436-9800|Open 7AM to 10PM daily."
33,-121.8914632,37.7061671,"Whole Foods-Dublin,CA","5200 Dublin Blvd, Dublin,CA 94568, (925) 452-2226|8:00 a.m. to 10:00 p.m. Seven days a week. Join us in the Dublin Vine Taproom from 11am to 930pm (also seven days a week)"
34,-118.39598899999999,33.904149,"Whole Foods-El Segundo,CA","760 South Sepulveda Blvd, El Segundo,CA 90245, (310) 333-1900|7:00 am to 10:00 pm. Seven days a week."
35,-121.11958200000001,38.648862,"Whole Foods-Folsom,CA","270 Palladio Parkway, Folsom,CA 95630, (916) 984-8500|8am to 9pm Monday-Sunday"
36,-121.98412900000001,37.554582,"Whole Foods-Fremont,CA","3111 Mowry Avenue, Fremont,CA 94538, (510) 401-5880|8:00 am to 9:00 pm. Seven days a week."
37,-119.80518400000001,36.808547999999995,"Whole Foods-Fresno,CA","650 W Shaw Ave, Fresno,CA 93704, (559) 241-0300|7:00am to 9:00pm everyday"
38,-118.245595,34.150658,"Whole Foods-Glendale,CA","331 North Glendale Ave, Glendale,CA 91206, (818) 548-3695|7am10pm Seven Days a Week"
39,-117.99148999999998,33.732085,"Whole Foods-Huntington Beach,CA","7881 Edinger Ave Suite 150, Huntington Beach,CA 92647, (657) 200-4200|7am to 10pm seven days a week"
40,-117.233263,32.867942,"Whole Foods-Irvine,CA","8525 Irvine Center Drive, Irvine,CA 92618, (949) 777-8500|Now Open! Business Hours: 7:00 a.m. - 10:00 p.m. Seven days a week"
41,-117.27400209999999,32.8473015,"Whole Foods-La Jolla,CA","8825 Villa La Jolla Dr, La Jolla,CA 92037-9994, (858) 642-6700|Open 7AM to 10PM daily."
42,-122.11771100000001,37.892877,"Whole Foods-Lafayette,CA","3502 Mt Diablo Blvd, Lafayette,CA 94549, (925) 284-5305|7:30am to 9pm seven days a week"
43,-117.78397,33.543968,"Whole Foods-Laguna Beach,CA","283 Broadway St, Laguna Beach,CA 92651, (949) 376-7888|7am to 9pm seven days a week"
44,-117.71373999999999,33.555318,"Whole Foods-Laguna Niguel,CA","23932 Aliso Creek Road, Laguna Niguel,CA 92677, (949) 900-5830|7am - 10pm seven days a week Rock-It Bar 11am - 9pm"
45,-118.1427378,33.830013,"Whole Foods 365-Long Beach,CA","3881 Lakewood Blvd [ste A], Long Beach,CA 90808, (562) 548-1840|7:00am to 10:00pm. Seven days a week"
46,-118.10931699999999,33.755837,"Whole Foods-Long Beach,CA","6550 E Pacific Coast Highway, Long Beach,CA 90803, (562) 598-8687|7am to 10pm seven days a week"
47,-122.109944,37.399097999999995,"Whole Foods-Los Altos,CA","4800 El Camino Real, Los Altos,CA 94022, (650) 559-0300|8am to 10pm seven days a week"
48,-118.447074,34.061174,"Whole Foods-Los Angeles,CA","1050 S Gayley Ave, Los Angeles,CA 90024, (310) 824-0858|7am to 10pm. Seven days a week"
49,-118.437823,34.022915999999995,"Whole Foods-Los Angeles,CA","11666 National Blvd, Los Angeles,CA 90064, (310) 996-8840|7:00 am to 10:00 pm. Seven days a week."
50,-118.46725500000001,34.053543,"Whole Foods-Los Angeles,CA","11737 San Vicente Blvd, Los Angeles,CA 90049, (310) 826-4433|7am to 10pm seven days a week"
51,-118.25916740000001,34.103080600000006,"Whole Foods 365-Los Angeles,CA","2520 Glendale Blvd, Los Angeles,CA 90039, (323) 378-3891|8:00am - 11:00pm Seven days a week"
52,-118.36036499999999,34.071303,"Whole Foods Market-Los Angeles,CA","6350 West 3rd Street, Los Angeles,CA 90036, (323) 964-6800|REGULAR STORE HOURS: 7AM to 11PM"
53,-118.2577197,34.0459958,"Whole Foods Market-Los Angeles,CA","788 S Grand Avenue, Los Angeles,CA 90017, (213) 873-4745|Store Hours: 7:00am to 10:00pm. Seven days a week. The Eight Bar Hours: 11am-10pm"
54,-121.962677,37.236096,"Whole Foods-Los Gatos,CA","15980 Los Gatos Blvd, Los Gatos,CA 95032, (408) 358-4434|7:00am to 9:00pm. Seven days a week."
55,-122.535859,37.896086,"Whole Foods-Mill Valley,CA","414 Miller Ave, Mill Valley,CA 94941, (415) 381-1200|7AM to 9PM Everyday"
56,-122.52569299999999,37.902433,"Whole Foods-Mill Valley,CA","731 East Blithedale, Mill Valley,CA 94941, (415) 381-3900|7:00am to 9:00pm. Seven days a week."
57,-121.900349,36.584438,"Whole Foods-Monterey,CA","800 Del Monte Center, Monterey,CA 93940, (831) 333-1600|8am to 9pm seven days a week"
58,-122.306463,38.322540999999994,"Whole Foods Market-Napa,CA","3682 Bel Aire Plaza, Napa,CA 94558, (707) 224-6300|8 AM to 9 PM everyday. Coffee bar-7 AM to 9 PM. Keg & Barrel Room -12 PM to 8 PM (Happy Hour 3:00-5:00)"
59,-117.87281499999999,33.614678000000005,"Whole Foods-Newport Beach,CA","415 Newport Center Drive, Newport Beach,CA 92660, (949) 999-8572|7:00 am to 10:00pm. Seven days a Week. Back Bay Tavern 11:00 am to 10:00 pm. Seven days a week."
60,-118.555016,34.274784000000004,"Whole Foods-Northridge,CA","19340 Rinaldi Street, Northridge,CA 91326, (818) 363-3933|7 A.M. - 10 P.M. Seven days a week"
61,-122.565924,38.10561,"Whole Foods Market-Novato,CA","790 De Long Avenue, Novato,CA 94945-7005, (415) 878-0455|8AM to 9PM Everyday"
62,-122.26101799999999,37.812663,"Whole Foods-Oakland,CA","230 Bay Place, Oakland,CA 94612, (510) 834-9800|8am to 10pm seven days a week"
63,-119.179542,34.24108,"Whole Foods-Oxnard,CA","650 Town Center Drive, Oxnard,CA 93036, (805) 751-4300|8am  10pm seven days a week"
64,-116.40008540000001,33.725418100000006,"Whole Foods Market-Palm Desert,CA","44459 Town Center Way, Palm Desert,CA 92260, (760) 797-8200|7:00 a.m. to 10:00 p.m. Seven days a week."
65,-122.159504,37.442468,"Whole Foods Market-Palo Alto,CA","774 Emerson Street, Palo Alto,CA 94301, (650) 326-8676|8am to 10pm seven days a week."
66,-118.071868,34.150384,"Whole Foods Market-Pasadena,CA","3751 E Foothill Blvd, Pasadena,CA 91107, (626) 351-5994|Open Daily: 7:00am - 10:00pm"
67,-118.147593,34.137615999999994,"Whole Foods Market-Pasadena,CA","465 South Arroyo Parkway, Pasadena,CA 91105, (626) 204-2266|Open Daily: 7:00am - 10:00pm"
68,-122.634196,38.240377,"Whole Foods Market-Petaluma,CA","621 E Washington St, Petaluma,CA 94952, (707) 762-9352|8am to 9pm seven days a week"
69,-118.42427830000001,33.974659,"Whole Foods-Playa Vista,CA","12746 West Jefferson Blvd, Playa Vista,CA 90094, (310) 862-9900|7:00am to 10:00pm Everyday"
70,-118.388143,33.847252000000005,"Whole Foods-Redondo Beach,CA","405 North Pacific Coast Hwy, Redondo Beach,CA 90277, (310) 376-6931|8am to 10pm - Seven days a week"
71,-122.231204,37.482327000000005,"Whole Foods-Redwood City,CA","1250 Jefferson Ave, Redwood City,CA 94062, (650) 367-1400|8am to 10pm. Seven days a week"
72,-121.266042,38.766312,"Whole Foods-Roseville,CA","1001 Galleria Blvd, Roseville,CA 95678, (916) 781-5300|8am to 9pm Sunday through Thursday. 8am to 10pm Friday and Saturday."
73,-121.36391699999999,38.595698,"Whole Foods-Sacramento,CA","4315 Arden Way, Sacramento,CA 95864, (916) 488-2800|7am to 9pm seven days a week"
74,-117.15803999999999,32.748249,"Whole Foods Market-San Diego,CA","711 University Ave, San Diego,CA 92103, (619) 294-2800|Open 7AM - 10PM daily. 7th Ave Pub: 12PM - 9:30PM daily."
75,-122.455,37.723901,"Whole Foods-San Francisco,CA","1150 Ocean Ave, San Francisco,CA 94112, (415) 333-7400|8am to 10pm. Seven days a week."
76,-122.42331999999999,37.790103,"Whole Foods-San Francisco,CA","1765 California St, San Francisco,CA 94109, (415) 674-0500|8 AM  10 PM daily"
77,-122.42713799999999,37.768408,"Whole Foods-San Francisco,CA","2001 Market Street, San Francisco,CA 94114, (415) 626-1430|8:00am - 10:00pm Seven days a week"
78,-122.43086799999999,37.751889,"Whole Foods-San Francisco,CA","3950 24th Street, San Francisco,CA 94114, (415) 282-4700|8am to 10pm Seven days a week"
79,-122.39964099999999,37.780875,"Whole Foods-San Francisco,CA","399 4th Street, San Francisco,CA 94107, (415) 618-0066|8am to 10pm seven days a week"
80,-122.402679,37.764134999999996,"Whole Foods-San Francisco,CA","450 Rhode Island St, San Francisco,CA 94107, (415) 552-1155|8am to 10pm"
81,-122.453282,37.769486,"Whole Foods-San Francisco,CA","690 Stanyan Street, San Francisco,CA 94117-3305, (415) 876-6740|8am to 10pm seven days a week"
82,-121.877587,37.250446000000004,"Whole Foods-San Jose,CA","1146 Blossom Hill Road, San Jose,CA 95118, (408) 266-3700|Open 8:00 AM to 10:00 PM. Seven Days a Week."
83,-121.90512849999999,37.3325081,"Whole Foods-San Jose,CA","777 The Alameda, San Jose,CA 95126, (408) 207-1126|8:00 a.m. to 10:00 p.m. Seven days a week."
84,-120.68867879999999,35.2518862,"Whole Foods-San Luis Obispo,CA","1531 Froom Ranch Way, San Luis Obispo,CA 93405, (805) 785-0194|7am - 9pm Seven days a week."
85,-122.291807,37.54445,"Whole Foods-San Mateo,CA","1010 Park Place, San Mateo,CA 94403, (650) 358-6900|8:00 am to 10:00 pm. Seven days a week."
86,-122.516815,37.970657,"Whole Foods-San Rafael,CA","340 Third St, San Rafael,CA 94901, (415) 451-6333|7AM to 10PM Everyday"
87,-121.96041699999999,37.761562,"Whole Foods Market-San Ramon,CA","100 Sunset Drive, San Ramon,CA 94583, (925) 355-9000|7:00 AM to 9:00 PM daily"
88,-119.745648,34.440401,"Whole Foods-Santa Barbara,CA","3761 State Street, Santa Barbara,CA 93105, (805) 837-6959|7am - 10pm"
89,-121.9764449,37.3823011,"Whole Foods-Santa Clara,CA","2732 Augustine Drive, Santa Clara,CA 95054, (408) 562-9162|8:00am - 10:00pm Seven days a week"
90,-118.55635,34.412892,"Whole Foods-Santa Clarita,CA","24130 Valencia Blvd, Santa Clarita,CA 91355, (661) 260-2377|8:00am - 10:00pm 7 days/wk"
91,-122.01415800000001,36.978853,"Whole Foods-Santa Cruz,CA","911 Soquel Ave, Santa Cruz,CA 95062, (831) 426-9901|8am to 9pm seven days a week"
92,-118.495021,34.032517,"Whole Foods-Santa Monica,CA","1425 Montana Ave, Santa Monica,CA 90403, (310) 576-4707|7am to 10pm seven days a week"
93,-118.4662336,34.022023299999994,"Whole Foods 365-Santa Monica,CA","2121 Cloverfield Blvd, Santa Monica,CA 90404,  (310) 752-1155|7:00am to 10:00pm Seven days a week"
94,-118.481518,34.032861,"Whole Foods-Santa Monica,CA","2201 Wilshire Blvd, Santa Monica,CA 90403, (310) 315-0662|7am to 10pm seven days a week"
95,-122.67392199999999,38.442259,"Whole Foods-Santa Rosa,CA","1181 Yulupa Ave, Santa Rosa,CA 95405, (707) 575-7915|8am to 9pm seven days a week"
96,-122.731642,38.458116,"Whole Foods Market-Santa Rosa,CA","390 Coddingtown Mall, Santa Rosa,CA 95401, (707) 542-7411|8 a.m. to 10 p.m. daily"
97,-122.823604,38.403669,"Whole Foods-Sebastopol,CA","6910 McKinley St, Sebastopol,CA 95472, (707) 829-9801|8am to 9pm seven days a week"
98,-118.414041,34.157793,"Whole Foods-Sherman Oaks,CA","12905 Riverside Drive, Sherman Oaks,CA 91423, (818) 762-5548|7 am to 10 pm - Seven days a week"
99,-118.46668000000001,34.152025,"Whole Foods-Sherman Oaks,CA","4520 N Sepulveda Blvd, Sherman Oaks,CA 91403, (818) 382-3700|7am to 10pm Seven days a week"
100,-122.46151200000001,38.292113,"Whole Foods Market-Sonoma,CA","201 W Napa St, Sonoma,CA 95476, (707) 938-8500|We are open 7am-9pm every day!"
101,-118.54080900000001,34.170685999999996,"Whole Foods-Tarzana,CA","18700 Ventura Blvd, Tarzana,CA 91356, (818) 578-7840|7am to 11pm - 7 Days a Week"
102,-118.874357,34.188320000000004,"Whole Foods-Thousand Oaks,CA","740 North Moorpark Rd, Thousand Oaks,CA 91360, (805) 777-4730|8am to 10pm- 7 Days A Week"
103,-118.332357,33.791554,"Whole Foods-Torrance,CA","2655 Pacific Coast Hwy, Torrance,CA 90505, (310) 257-8700|8:00am to 10:00pm seven days a week"
104,-117.823746,33.698040999999996,"Whole Foods-Tustin,CA","2847 Park Avenue, Tustin,CA 92782, (714) 566-7650|7am to 10pm seven days a week"
105,-117.6915896,34.121655,"Whole Foods 365-Upland,CA","2153 W Baseline Rd, Upland,CA 91784, (909) 579-2670}7:00am to 10:00pm Daily"
106,-118.470077,34.001582,"Whole Foods-Venice,CA","225 Lincoln Blvd, Venice,CA 90291, (310) 566-9480|6:30am to 10pm. Seven days a week."
107,-122.055191,37.893605,"Whole Foods-Walnut Creek,CA","1333 Newell Ave, Walnut Creek,CA 94596, (925) 274-9700|8:00am to 10pm daily"
108,-122.015358,37.925926200000006,"Whole Foods-Walnut Creek,CA","2941 Ygnacio Valley Rd, Walnut Creek,CA 94598, (925) 269-9010|8:00 a.m. to 9:00 p.m. Seven days a week."
109,-118.360909,34.090968,"Whole Foods Market-West Hollywood,CA","7871 Santa Monica Blvd, West Hollywood,CA 90046, (323) 848-4200|7am to 11pm seven days a week"
110,-118.596427,34.167794,"Whole Foods-Woodland Hills,CA","21347 Ventura Blvd, Woodland Hills,CA 91364, (818) 610-0000|7am to 10pm Seven days a week"
111,-107.083317,39.387458,"Whole Foods-Basalt,CO","340 Reed Street, Basalt,CO 81621, (970) 927-1500|7:30am-9pm"
112,-105.280914,40.025648,"Whole Foods Ideal Market-Boulder,CO","1275 Alpine Ave, Boulder,CO 80304, (303) 443-1354|Open 7am to 10pm"
113,-105.25581799999999,40.023006,"Whole Foods-Boulder,CO","2905 Pearl St, Boulder,CO 80301, (303) 545-6611|Open 7am to 10pm"
114,-104.961243,39.593956,"Whole Foods Market-Centennial,CO","6853 South York Street, Centennial,CO 80122, (303) 996-3660|Open 7am-10pm"
115,-104.799301,38.941868,"Whole Foods-Colorado Springs,CO","7635 North Academy Blvd, Colorado Springs,CO 80920-3207, (719) 531-9999|Open 7:30am-9:30pm"
116,-104.979418,39.696271,"Whole Foods-Denver,CO","1111 S Washington Street, Denver,CO 80210, (303) 733-6201|Open 7am to 10pm"
117,-105.00136,39.75448,"Whole Foods-Denver,CO","1701 Wewatta Street, Denver,CO 80202, (720) 572-8800|7:00am to 10:00pm. Seven days a week."
118,-104.95845600000001,39.718419,"Whole Foods-Denver,CO","2375 E 1st Ave, Denver,CO 80206, (720) 941-4100|Open 7am to 10pm"
119,-104.90153899999999,39.653048,"Whole Foods Market-Denver,CO","7400 E Hampden Ave, Denver,CO 80231, (303) 488-2000|Open 7am to 10pm"
120,-105.077298,40.55901,"Whole Foods-Fort Collins,CO","2201 S College Ave, Fort Collins,CO 80525, (970) 267-9200|Open 7am to 10pm"
121,-106.0978088,39.5900803,"Whole Foods Market-Frisco,CO","261 Lusher Court, Frisco,CO 80443, (970) 668-9400|Open 8am to 9pm"
122,-104.94048400000001,39.700965999999994,"Whole Foods-Glendale,CO","870 S Colorado Blvd, Glendale,CO 80246, (303) 691-0101|Open 7am to 10pm"
123,-105.162581,39.733211,"Whole Foods-Golden,CO","14357 W Colfax Ave, Golden,CO 80401, (303) 277-1339|Open 7:30am-9:30pm"
124,-104.943541,39.545698,"Whole Foods Market-Highlands Ranch,CO","9366 S Colorado Blvd, Highlands Ranch,CO 80126, (303) 470-6003|Open 8am-9pm"
125,-105.081364,39.707805,"Whole Foods-Lakewood,CO","444 S Wadsworth Blvd, Lakewood,CO 80226, (303) 935-5000|Open 7:30 am to 10 pm"
126,-105.09225900000001,39.623243,"Whole Foods-Littleton,CO","5155 S Wadsworth Blvd, Littleton,CO 80123-2217, (303) 586-5220|Open 7:30 am to 9:00 pm daily"
127,-105.1287155,40.1454277,"Whole Foods-Longmont,CO","1250 South Hover Road, Longmont,CO 80501, (720) 438-2550|8:00am - 9:00pm Seven days a week"
128,-105.169827,39.956474,"Whole Foods Market-Superior,CO","303 Marshall Rd, Superior,CO 80027, (720) 274-1415|Open 8am-9:30pm"
129,-105.03810120000001,39.9128799,"Whole Foods-Westminster,CO","4451 Main St, Westminster,CO 80031, (303) 439-7000|8am to 9:30pm"
130,-73.474901,41.378640000000004,"Whole Foods-Danbury,CT","5C Sugar Hollow Road, Danbury,CT 06810, (203) 730-0599|8am to 10pm Daily"
131,-73.474925,41.072967999999996,"Whole Foods-Darien,CT","150 Ledge Road, Darien,CT 06820, (203) 662-0577|8:00 am to 10:00 pm seven days a week"
132,-73.2419,41.157197,"Whole Foods-Fairfield,CT","350 Grasmere Avenue, Fairfield,CT 06824, (203) 319-9544|8:00 am to 10:00 pm seven days a week"
133,-72.608575,41.713695,"Whole Foods-Glastonbury,CT","55 Welles Street, Glastonbury,CT 06033, (860) 652-9800|8am to 9pm seven days a week"
134,-73.624018,41.033487,"Whole Foods-Greenwich,CT","90 E. Putnam Ave, Greenwich,CT 06830, (203) 661-0631|7am to 10pm seven days a week"
135,-73.024516,41.248248,"Whole Foods-Milford,CT","1686 Boston Post Road, Milford,CT 06460, (203) 874-0883|8am to 10pm seven days a week"
136,-72.746516,41.783774,"Whole Foods-West Hartford,CT","340 N Main St, West Hartford,CT 06117, (860) 523-7174|8am to 9pm seven days a week"
137,-72.739254,41.760884999999995,"Whole Foods-West Hartford,CT","50 Raymond Rd, West Hartford,CT 06107, (860) 523-8500|8am to 10pm seven days a week"
138,-73.379348,41.129118,"Whole Foods-Westport,CT","399 Post Road West, Westport,CT 06880, (203) 227-6858|8:00am - 10:00pm Daily"
139,-77.00471,38.88029,"Whole Foods-Washington,DC","101 H St SE, Washington,DC 20003, (202) 469-7280|7:00am to 10:00pm. Seven days a week"
140,-77.03304200000001,38.909521000000005,"Whole Foods-Washington,DC","1440 P Street NW, Washington,DC 20005, (202) 332-4300 or (202) 265-4665|Daily 7:00 am to 10:30 pm."
141,-77.049386,38.900846,"Whole Foods-Washington,DC","2201 I Street NW, Washington,DC 20037, (202) 296-1660|7am to 11pm Monday-Sunday"
142,-77.078854,38.948512,"Whole Foods-Washington,DC","4530 40th St NW Tenley Circle, Washington,DC 20016, (202) 237-5800|8:00am to 10:00pm. Seven days a week. Coffee bar opens at 7:00am"
143,-76.99815,38.9004,"Whole Foods-Washington,DC","600 H St NE, Washington,DC 20002, (202) 469-7410|7:00am to 11:00pm. Seven days a week."
144,-81.38191090000001,28.6625321,"Whole Foods-Altamonte Springs,FL","305 East Altamonte Drive, Altamonte Springs,FL 32701, (407) 767-2100|8:00am - 10:00pm Seven days a week"
145,-80.143389,25.970948999999997,"Whole Foods-Aventura,FL","21105 Biscayne Blvd, Aventura,FL 33180, (305) 682-4400|8am - 10pm"
146,-80.108863,26.365371000000003,"Whole Foods-Boca Raton,FL","1400 Glades Rd, Boca Raton,FL 33431, (561) 447-0000|8am to 10pm seven days a week"
147,-82.7364731,28.017635300000002,"Whole Foods-Clearwater,FL","27001 US 19 North, Clearwater,FL 33761, (727) 724-7100|8:00 a.m. to 10:00 p.m. Seven days a week."
148,-80.285494,25.709429,"Whole Foods-Coral Gables,FL","6701 Red Road, Coral Gables,FL 33143, (305) 421-9421|8:00 am to 10:00 pm. Seven days a week"
149,-80.254374,26.2414,"Whole Foods-Coral Springs,FL","810 University Drive, Coral Springs,FL 33071, (954) 796-5800|8am to 10pm seven days a week"
150,-80.2512719,26.096600199999997,"Whole Foods-Davie,FL","1903 S University Drive, Davie,FL 33324, (954) 916-3000|8:00 am-10:00 pm Seven days a week. Allegro Coffee Bar open from 8am-8pm."
151,-86.4196014,30.390304600000004,"Whole Foods-Destin,FL","4402 Legendary Drive, Destin,FL 32541, (850) 269-7400|Store: 8:00am to 10:00pm. Coffee bar: 8:00am- 8:00pm. Seven days a week."
152,-80.118364,26.153376,"Whole Foods-Fort Lauderdale,FL","2000 N Federal Hwy, Fort Lauderdale,FL 33305, (954) 398-2000|8am to 10pm seven days a week"
153,-81.8408458,26.5467602,"Whole Foods-Fort Myers,FL","6891 Daniels Pkwy [ste 100], Fort Myers,FL 33966, (239) 935-6550|8:00am to 10:00pm. Seven days a week."
154,-82.37402759999999,29.625868800000003,"Whole Foods-Gainesville,FL","3490 SW Archer Rd, Gainesville,FL 32608, (352) 244-8302|8:00am to 10:00pm. Seven days a week"
155,-81.624764,30.185405,"Whole Foods-Jacksonville,FL","10601 San Jose Blvd, Jacksonville,FL 32257, (904) 288-1100|8am to 9pm Seven days a week"
156,-80.18885490000001,25.7719289,"Whole Foods-Miami,FL","299 SE 3rd Ave, Miami,FL 33131, (305) 995-0600|7:30 am  11:00 pm seven days a week"
157,-80.32343,25.67325,"Whole Foods-Miami,FL","7930 SW 104 Street, Miami,FL 33156, (305) 969-5800|8:00am to 10:00pm. Seven days a week."
158,-80.141056,25.780839,"Whole Foods-Miami Beach,FL","1020 Alton Road, Miami Beach,FL 33139, (305) 938-2800|8:00 a.m. to 11:00 p.m. Seven days a week"
159,-81.800744,26.254163000000002,"Whole Foods-Naples,FL","9101 Strada Place, Naples,FL 34108, (239) 552-5100|8am to 10pm Monday to Saturday"
160,-80.16538100000001,25.887995999999998,"Whole Foods-North Miami,FL","12150 Biscayne Blvd, North Miami,FL 33181, (305) 892-5500|8:00 am  10:00 pm seven days a week"
161,-81.476876,28.44936,"Whole Foods-Orlando,FL","8003 Turkey Lake Road, Orlando,FL 32819, (407) 355-7100|8am to 10pm seven days a week"
162,-80.093165,26.847671999999996,"Whole Foods Market-Palm Beach Gardens,FL","11701 Lake Victoria Gardens Ave, Palm Beach Gardens,FL 33410, (561) 630-3400|8am to 10pm seven days a week"
163,-80.349368,26.006923999999998,"Whole Foods-Pembroke Pines,FL","14956 Pines Blvd, Pembroke Pines,FL 33027, (954) 392-3500|8am to 10pm seven days a week"
164,-80.10208890000001,26.242959999999997,"Whole Foods-Pompano Beach,FL","2411 N Federal Highway, Pompano Beach,FL 33062, (954) 786-3500|Monday-Saturday 7:00am-10:00pm. Sunday 8:00am-10:00pm"
165,-82.54191,27.337740000000004,"Whole Foods-Sarasota,FL","1451 1st Street, Sarasota,FL 34236, (941) 316-4700|8am to 9pm Monday to Saturday"
166,-82.4626,27.387569,"Whole Foods-Sarasota,FL","5298 University Pkwy, Sarasota,FL 34243, (941) 806-6130|8am to 9pm. Seven days a week"
167,-84.270589,30.46315,"Whole Foods-Tallahassee,FL","1817 Thomasville Road, Tallahassee,FL 32303, (850) 513-4200|8:00 am to 9:00 pm"
168,-82.50569399999999,27.95682,"Whole Foods-Tampa,FL","1548 North Dale Mabry Highway, Tampa,FL 33607, (813) 348-1200|8:00 am to 10:00 pm. Seven days a week."
169,-82.50405400000001,28.09282,"Whole Foods-Tampa,FL","3802 Northdale Blvd, Tampa,FL 33624-1833, (813) 264-3600|8 a.m. to 9 p.m. - 7 days a week"
170,-80.203972,26.640999,"Whole Foods-Wellington,FL","2635 State Road 7, Wellington,FL 33414-9372, (561) 904-4000|Monday through Saturday"
171,-80.0885329,26.720357300000003,"Whole Foods Market-West Palm Beach,FL","1845 Palm Beach Lakes Boulevard, West Palm Beach,FL 33401, (561) 471-3800|8:00 a.m. to 10:00 p.m. Seven days a week."
172,-81.36508740000001,28.606644899999996,"Whole Foods-Winter Park,FL","1030 N Orlando Ave, Winter Park,FL 32789, (407) 377-6040|8:00am to 10:00pm seven days a week"
173,-84.2796978,34.0690052,"Whole Foods-Alpharetta,GA","2800 Old Milton Pkwy, Alpharetta,GA 30009, (678) 534-3138|8am to 10pm seven days a week"
174,-84.334337,33.815220000000004,"Whole Foods-Atlanta,GA","2111 Briarcliff Rd NE, Atlanta,GA 30329, (404) 634-7800|8am to 10pm Monday - Saturday"
175,-84.383825,33.7844967,"Whole Foods-Atlanta,GA","22 14th St NW, Atlanta,GA 30309, (470) 552-4201|7am-10pm Seven days a week"
176,-84.429168,33.850842,"Whole Foods 365-Atlanta,GA","3535 Northside Pkwy, Atlanta,GA 30327,|7am to 10 pm. Seven days a week."
177,-84.37933199999999,33.916826,"Whole Foods-Atlanta,GA","5930 Roswell Rd, Atlanta,GA 30328, (404) 236-0810|8am to 10pm Monday to Saturday"
178,-84.365381,33.773478999999995,"Whole Foods-Atlanta,GA","650 Ponce de Leon Ave NE, Atlanta,GA 30308, (404) 853-1681|7:30am to 10pm seven days a week"
179,-84.381952,33.840434,"Whole Foods-Atlanta,GA","77 West Paces Ferry Rd NW, Atlanta,GA 30305, (404) 324-4100|7:30am to 10pm Monday to Saturday"
180,-84.3144,33.885059999999996,"Whole Foods-Chamblee,GA","5001 Peachtree Boulevard, Chamblee,GA 30341, (470) 552-0750|7:00am to 10:00pm. Seven days a week."
181,-84.2854185,33.79190139999999,"Whole Foods 365-Marietta,GA","1555 Church St, Decatur,GA 30030, (470) 237-7340|7am to 10pm. Seven days a week"
182,-84.187878,34.01675,"Whole Foods-Johns Creek,GA","5945 State Bridge Rd, Johns Creek,GA 30097, (678) 514-2400|8am to 10pm Monday to Saturday; 9am to 9pm Sunday"
183,-84.58865,33.99821,"Whole Foods-Kennesaw,GA","1300 Ernest Barrett Parkway, Kennesaw,GA 30144, (770) 578-4400|7:00am to 10:00pm. Seven days a week."
184,-84.425394,33.980812,"Whole Foods-Marietta,GA","1311 Johnson Ferry Road NE, Marietta,GA 30068, (678) 996-9700|8am to 10pm seven days a week"
185,-81.071787,32.044230999999996,"Whole Foods-Savannah,GA","1815 E Victory Drive, Savannah,GA 31404, (912) 358-5829|8am-9pm seven days a week"
186,-157.8515057,21.2948322,"Whole Foods-Honolulu,HI","388 Kamakee St [ste 100], Honolulu,HI 96814, (808) 379-1800|7:00am to 10:00pm. Seven days a week"
187,-157.786948,21.278403,"Whole Foods Market-Honolulu,HI","4211 Wai'alae Avenue, Honolulu,HI 96816, (808) 738-0820|7am to 10pm seven days a week"
188,-156.464528,20.891556,"Whole Foods Market-Kahului,HI","70 East Kaahumanu Avenue #B, Kahului,HI 96732, (808) 872-3310|7am to 9pm seven days a week"
189,-157.742917,21.393892,"Whole Foods-Kailua,HI","629 Kailua Road, Kailua,HI 96734, (808) 263-6800|7am to 10pm seven days a week"
190,-93.758483,41.598989,"Whole Foods-West Des Moines,IA","4100 University Ave Suite #260, West Des Moines,IA 50266, (515) 343-2600|8am to 10pm seven days a week"
191,-116.19418,43.606866,"Whole Foods-Boise,ID","401 S Broadway, Boise,ID 83702, (208) 287-4600|Regular store hours 7:30am-10pm Daily"
192,-87.6468964,41.8824692,"Whole Foods-Chicago,IL","1 N Halsted Street, Chicago,IL 60661, (312) 207-8400|7:00 am to 10:00 pm Seven days a week"
193,-87.639083,41.868482,"Whole Foods-Chicago,IL","1101 S Canal St, Chicago,IL 60607, (312) 435-4600|8:00am to 10:00pm. Seven Days a Week."
194,-87.653223,41.91091,"Whole Foods-Chicago,IL","1550 N Kingsbury Street, Chicago,IL 60642, (312) 587-0648|8am to 10pm seven days a week"
195,-87.62132259999998,41.8913651,"Whole Foods-Chicago,IL","255 E Grand Ave, Chicago,IL 60611, (312) 379-7900|7:00 a.m. to 10:00 p.m. Seven days a week."
196,-87.62923,41.894991,"Whole Foods-Chicago,IL","30 West Huron St, Chicago,IL 60654, (312) 932-9600|7am to 10pm seven days a week"
197,-87.66824,41.94045,"Whole Foods-Chicago,IL","3201 N Ashland Ave, Chicago,IL 60657, (773) 244-4200|8am to 10pm seven days a week"
198,-87.649632,41.948359,"Whole Foods-Chicago,IL","3640 N Halsted St, Chicago,IL 60613, (773) 472-0400|8am to 10pm seven days a week"
199,-87.58818000000001,41.801871999999996,"Whole Foods-Chicago,IL","5118 S Lake Park Ave, Chicago,IL 60615, (773) 819-1600|7:00am - 10:00pm Seven days a week."
200,-87.6596527,41.9910812,"Whole Foods-Chicago,IL","6009 North Broadway, Chicago,IL 60660, (773) 506-7600|8:00 a.m. to 10:00 p.m. Seven days a week."
201,-87.74845400000001,41.990167,"Whole Foods-Chicago,IL","6020 N Cicero Ave, Chicago,IL 60646, (773) 205-1100|8am to 10pm seven days a week"
202,-87.6462708,41.77996829999999,"Whole Foods-Chicago,IL","832 W 63rd Street, Chicago,IL 60621, (773) 896-9800|8:00am - 8:00pm Seven days a week"
203,-87.65326490000001,41.9253469,"Whole Foods-Chicago,IL","959 West Fullerton Avenue, Chicago,IL 60614, (773) 868-5200|8:00 a.m. to 9:00 p.m. Seven days a week."
204,-87.84708,42.166746,"Whole Foods-Deerfield,IL","760 Waukegan Rd, Deerfield,IL 60015, (847) 444-1900|8am to 10pm seven days a week."
205,-87.9627483,41.8942239,"Whole Foods-Elmhurst,IL","215 S IL Rte 83, Elmhurst,IL 60126, (630) 993-7600|8:00am to 10:00pm seven days a week"
206,-87.679513,42.0469,"Whole Foods-Evanston,IL","1640 Chicago Ave, Evanston,IL 60201, (847) 733-1600|8am to 10pm"
207,-87.70239029999999,42.068532,"Whole Foods-Evanston,IL","2748 Green Bay Road, Evanston,IL 60201, (847) 424-5700|8:00 a.m. to 10:00 p.m. Seven days a week"
208,-87.6823017,41.71904,"Whole Foods-Evergreen Park,IL","9600 S Western Ave, Evergreen,IL 60805, (708) 931-3030|8am to 10pm. Seven days a week"
209,-87.918195,41.817868,"Whole Foods-Hinsdale,IL","500 E Ogden Ave, Hinsdale,IL 60521, (630) 986-8500|8am to 10pm seven days a week"
210,-88.04448599999999,42.158736,"Whole Foods-Kildeer,IL","20281 N Rand Road, Kildeer,IL 60074, (847) 726-4601|Hours: 8am to 9pm"
211,-88.200212,41.747397,"Whole Foods Market-Naperville,IL","2607 W 75th Street, Naperville,IL 60540, (630) 579-7700|Open 8 am to 10 pm seven days a week"
212,-87.800177,42.105537,"Whole Foods-Northbrook,IL","840 Willow Road, Northbrook,IL 60062, (847) 205-5353|8am to 9pm seven days a week"
213,-87.854439,41.613257,"Whole Foods-Orland Park,IL","15260 S LaGrange Road, Orland Park,IL 60462, (708) 364-1350|8 am  10 pm Seven days a week"
214,-87.825057,42.01081,"Whole Foods-Park Ridge,IL","225 W Touhy Ave, Park Ridge,IL 60068, (847) 292-7100|8:00 am to 10:00 pm seven days a week"
215,-87.805994,41.888407,"Whole Foods-River Forest,IL","7245 Lake St, River Forest,IL 60305, (708) 366-1045|8am to 10pm seven days a week"
216,-88.036464,42.042260999999996,"Whole Foods-Schaumburg,IL","750 N Martingale Rd, Schaumburg,IL 60173, (847) 585-5800|8:00am to 10:00pm. Seven days a week"
217,-87.9448397,42.24215220000001,"Whole Fooda-Vernon Hills,IL","851 N Milwaukee Ave, Vernon Hills,IL 60061, (224) 504-3990|8:00am to 10:00pm Seven days a week"
218,-88.1018322,41.8307521,"Whole Foods-Wheaton,IL","89 Danada Square East, Wheaton,IL 60187, (630) 588-1500|8:00am - 10:00pm Seven days a week"
219,-87.947334,41.772834,"Whole Foods-Willowbrook,IL","6300 S Robert Kingery Highway, Willowbrook,IL 60527, (630) 655-5000|8:00 a.m. to 10:00 p.m. Seven days a week."
220,-86.130156,39.999919,"Whole Foods-Carmel,IN","14598 Clay Terrace Blvd, Carmel,IN 46032, (317) 569-1517|Monday to Saturday 8am-10pm"
221,-86.13823599999999,39.912742,"Whole Foods-Indianapolis,IN","1300 E 86th St, Indianapolis,IN 46240, (317) 706-0900|Monday - Sunday: 8am to 10pm"
222,-86.15165,39.76876,"Whole Foods-Indianapolis,IN","320 E Market St, Indianapolis,IN 46204, (317) 559-9360|8:00am to 9:00pm Seven days a week"
223,-86.186983,41.700229,"Whole Foods-Mishawaka,IN","4230 Grape Road, Mishawaka,IN 46545-1007, (574) 247-5800|Monday - Sunday: 8AM to 10PM"
224,-87.4712247,41.5186107,"Whole Foods-Schererville,IN","199 US HWY 41, Schererville,IN 46375, (219) 864-5400|8:00 a.m. to 10:00 p.m. Monday - Sunday"
225,-94.75586240000001,38.912675,"Whole Foods-Olathe,KS","14615 W 119th Street, Olathe,KS 66062, (913) 764-5656|Open 8am-9pm"
226,-94.661885,38.912721999999995,"Whole Foods-Overland Park,KS","6621 West 119th Street, Overland Park,KS 66209-2020, (913) 663-2951|Open 8:00am-10:00pm"
227,-97.2262942,37.7091309,"Whole Foods-Wichita,KS","1423 N Webb Rd, Wichita,KS 67206, (316) 630-8484|Open 7:30am-9pm"
228,-84.52861999999999,37.977639,"Whole Foods-Lexington,KY","4059 Finn Way, Lexington,KY 40503, (859) 971-8600|8am to 10pm. Seven days a week"
229,-85.625437,38.250292,"Whole Foods Market-Louisville,KY","4944 Shelbyville Road, Louisville,KY 40207, (502) 899-5545|STORE HOURS: 8am to 10pm"
230,-91.11089,30.430798,"Whole Foods-Baton Rouge,LA","7529 Corporate Blvd, Baton Rouge,LA 70809, (225) 218-0452|8am10pm seven days a week"
231,-92.0540511,30.161233199999998,"Whole Foods-Lafayette,LA","4247 Ambassador Caffery Pkwy, Lafayette,LA 70508, (337) 314-9653|8am-9pm seven days a week"
232,-90.0847276,30.392366499999998,"Whole Foods-Mandeville,LA","3450 Highway 190, Mandeville,LA 70471, (985) 231-3328|8am9pm seven days a week"
233,-90.15915600000001,30.003199,"Whole Foods-Metairie,LA","3420 Veterans Memorial Blvd, Metairie,LA 70002, (504) 888-8225|8am10pm seven days a week"
234,-90.084978,29.967212,"Whole Foods-New Orleans,LA","300 N Broad St, New Orleans,LA 70119, (504) 434-3364|7:00am-9:00pm. Seven days a week."
235,-90.117191,29.921134999999996,"Whole Foods-New Orleans,LA","5600 Magazine Street, New Orleans,LA 70115, (504) 899-9119|8am to 9pm seven days a week"
236,-93.7302118,32.443386,"Whole Foods-Shreveport,LA","1380 E 70th St, Shreveport,LA 71105, (318) 462-9895|8am10pm seven days a week"
237,-71.144697,42.65913,"Whole Foods-Andover,MA","40 Railroad St, Andover,MA 01810, (978) 749-6664|Open 8am to 9pm"
238,-71.159876,42.416084999999995,"Whole Foods Market-Arlington,MA","808 Massachusetts Avenue, Arlington,MA 02476, (781) 777-7200|8AM  10PM seven days a week"
239,-71.274273,42.490072999999995,"Whole Foods-Bedford,MA","170 Great Rd, Bedford,MA 01730, (781) 275-8264|Open 8am-9pm seven days a week."
240,-71.46157600000001,42.11482,"Whole Foods-Bellingham,MA","255 Hartford Ave, Bellingham,MA 02019, (508) 966-3331|Open 8am - 9pm daily"
241,-71.086554,42.343507,"Whole Foods-Boston,MA","15 Westland Ave, Boston,MA 02115, (617) 375-1010|7:00am to 10:30pm seven days a week! Check back here for changes to our schedules."
242,-71.06539699999999,42.361321999999994,"Whole Foods-Boston,MA","181 Cambridge St, Boston,MA 02114, (617) 723-0004|Open 7 am to 10 pm seven days a week."
243,-71.0636795,42.3449725,"Whole Foods-Boston,MA","348 Harrison Avenue, Boston,MA 02118, (617) 904-1000|8:00am to 10:00pm seven days a week. Coffee Bar opens at 7:00am."
244,-71.140647,42.342655,"Whole Foods-Brighton,MA","15 Washington Street, Brighton,MA 02135, (617) 738-8187|8:00am to 10:00pm - Seven days a week."
245,-71.10821999999999,42.346059999999994,"Whole Foods-Brookline,MA","1028 Beacon Street, Brookline,MA 02446, (617) 202-0550|8am  10pm"
246,-71.102059,42.368126000000004,"Whole Foods-Cambridge,MA","115 Prospect St, Cambridge,MA 02139, (617) 492-0070|7:00am to 10:30pm"
247,-71.14303100000001,42.388594,"Whole Foods-Cambridge,MA","200 Alewife Brook Pkwy, Cambridge,MA 02138, (617) 491-0040|8am to 10pm  7 days a week"
248,-71.114349,42.361968,"Whole Foods Market-Cambridge,MA","340 River St, Cambridge,MA 02139, (617) 876-6990|8:00 am to 10:00 pm. Seven days a week."
249,-71.06619599999999,42.375042,"Whole Foods-Charlestown,MA","51 Austin St, Charlestown,MA 02129, (617) 337-9700|7:30am to 10pm seven days a week"
250,-71.17748,42.232577,"Whole Foods Market-Dedham,MA","300 Legacy Place, Dedham,MA 02026, (781) 329-7100|8am to 10pm 7 Days A Week"
251,-71.42139399999999,42.298211,"Whole Foods-Framingham,MA","575 Worcester Rd, Framingham,MA 01701, (508) 628-9525|7AM-10PM seven days a week"
252,-72.55805500000001,42.354022,"Whole Foods-Hadley,MA","327 Russell St, Hadley,MA 01035, (413) 586-9932|8AM - 10PM"
253,-70.906626,42.180222,"Whole Foods Market-Hingham,MA","94 Derby St [Derby Street Shoppes], Hingham,MA 02043, (781) 741-8050|8AM to 10PM. Seven days a week"
254,-70.30207220000001,41.671785,"Whole Foods-Hyannis,MA","990 Iyannough Road, Hyannis,MA 02601, (508) 418-5900|8AM to 9PM. Seven days a week"
255,-71.110885,42.32134,"Whole Foods-Jamaica Plain,MA","413 Centre Street, Jamaica Plain,MA 02130, (617) 553-5400|8am to 10pm seven days a week."
256,-71.0320723,42.5148676,"Whole Foods-Lynnfield,MA","100 Market Street, Lynnfield,MA 01940, (781) 776-4300|Store open 8am  10pm seven days a week. Coffee and juice bar window opens at 7 am. Coffee and juice bar closes at 9 pm."
257,-71.127437,42.417586,"Whole Foods-Medford,MA","2151 Mystic Valley Parkway, Medford,MA 02155, (781) 395-4998|8AM to 9PM"
258,-71.0618113,42.46443,"Whole Foods-Melrose,MA","880 Main Street, Melrose,MA 02176-2346, (781) 606-3400|8am to 9pm. Seven days a week"
259,-71.206518,42.329889,"Whole Foods-Newton,MA","916 Walnut St, Newton,MA 02461, (617) 969-1141|8 AM to 10 PM 7 Days A Week"
260,-71.169235,42.351397999999996,"Whole Foods Market-Newtonville,MA","647 Washington Street, Newtonville,MA 02458, (617) 965-2070|8 AM to 10 PM 7 Days A Week"
261,-71.74531999999999,42.275490000000005,"Whole Foods-Shrewsbury,MA","193 Boston Turnpike, Shrewsbury,MA 01545, (508) 749-5520|8:00 to 10:00 Seven days a week"
262,-71.103044,42.375887,"Whole Foods Market-Somerville,MA","45 Beacon Street, Somerville,MA 02143, (617) 902-9300|Regular Hours 8am - 10pm"
263,-70.9533615,42.171375299999994,"Whole Foods-South Weymouth,MA","35 Pleasant Street, South Weymouth,MA 02190, (781) 277-5200|8AM to 9PM. Seven days a week"
264,-71.427514,42.359813,"Whole Foods-Sudbury,MA","536 Boston Post Road, Sudbury,MA 01776, (508) 358-7700|8:00am to 10:00pm. Seven days a week."
265,-70.903203,42.480934999999995,"Whole Foods-Swampscott,MA","331 Paradise Rd, Swampscott,MA 01907, (781) 592-2200|8am to 9pm seven days a week"
266,-71.286013,42.301759999999994,"Whole Foods Market-Wellesley,MA","442 Washington Street, Wellesley,MA 02482, (781) 235-7262|7am to 9pm Seven days a week."
267,-71.4201584,42.568172499999996,"Whole Foods-Westford,MA","160 Littleton Road, Westford,MA 01886, (978) 303-2900|8:00 a.m. to 9:00 p.m. Seven days a week."
268,-71.165083,42.460504,"Whole Foods-Woburn,MA","400 Cambridge Rd, Woburn,MA 01801, (781) 376-9600|8am to 9pm seven days a week"
269,-76.539725,38.982186999999996,"Whole Foods-Annapolis,MD","200 Harker PIace, Annapolis,MD 21401, (410) 573-1800|Monday-Saturday 7am-10pm Sunday 7am-9pm"
270,-76.600155,39.284168,"Whole Foods Market-Baltimore,MD","1001 Fleet Street, Baltimore,MD 21202, (410) 528-1640|Monday-Friday: 7:00am-10:00pm; Saturday & Sunday: 8:00am-10:00pm"
271,-76.649322,39.367982,"Whole Foods-Baltimore,MD","1330 Smith Ave, Baltimore,MD 21209, (410) 532-6700|8 AM - 9:00 PM - everyday"
272,-77.10504300000001,38.966015000000006,"Whole Foods-Bethesda,MD","5269 River Rd, Bethesda,MD 20816, (301) 984-4860|Open every day 7:30 am - 9 pm."
273,-77.08691,38.961812,"Whole Foods-Chevy Chase,MD","4420 Willard Ave, Chevy Chase,MD 20815, (301) 657-1520|8am to 10pm"
274,-76.85803990000001,39.2192116,"Whole Foods Market-Columbia,MD","10275 Little Patuxent Pkwy, Columbia,MD 21044, (240) 865-1827|Store Hours: 7:00am-10:00pm Every Day (Hours subject to change on major holidays)"
275,-77.239644,39.123404,"Whole Foods-Gaithersburg,MD","316 Kentlands Blvd, Gaithersburg,MD 20878-5454, (301) 258-9500|7.30am to 9pm seven days a week"
276,-76.9383548,38.9690777,"Whole Foods-Riverdale Park,MD","6621-B Baltimore Ave, Riverdale Park,MD 20737, (240) 487-7575|7:00am to 10:00pm. Seven days a week"
277,-77.113353,39.042972,"Whole Foods-Rockville,MD","11355 Woodglen Drive, Rockville,MD 20852, (301) 984-4880|8am to 10pm Monday to Saturday"
278,-77.022841,38.996564,"Whole Foods-Silver Spring,MD","833 Wayne Ave, Silver Spring,MD 20910, (301) 608-9373|7am to 10pm seven days a week"
279,-70.25869,43.663939,"Whole Foods-Portland,ME","2 Somerset St, Portland,ME 04101, (207) 774-7711|Open 8am-10pm seven days a week. Somerset Tap House Hours: 11am-10pm Last call for food is 9pm and alcohol 9:30pm."
280,-83.69815600000001,42.25737,"Whole Foods-Ann Arbor,MI","3135 Washtenaw Ave, Ann Arbor,MI 48104, (734) 975-4500|8am to 10pm seven days a week."
281,-83.75822099999999,42.246946,"Whole Foods-Ann Arbor,MI","990 W Eisenhower Parkway, Ann Arbor,MI 48103, (734) 997-7500|8am to 10pm seven days a week"
282,-83.19415,42.54642,"Whole Foods-Birmingham,MI","2100 East Maple Road, Birmingham,MI 48009, (248) 649-9600|8:00a to 10:00pm Seven days a week"
283,-83.0568928,42.3480684,"Whole Foods Market-Detroit,MI","115 Mack Ave, Detroit,MI 48201, (313) 576-5300|8am to 10pm Seven Days a Week"
284,-84.457425,42.728047600000004,"Whole Foods-East Lansing,MI","2750 E Grand River Ave, East Lansing,MI 48823, (517) 319-2000|8:00am - 10:00pm Seven days a week"
285,-83.159155,42.681597,"Whole Foods-Rochester Hills,MI","2918 Walton Blvd, Rochester Hills,MI 48309, (248) 371-1400|8am to 10pm seven days a week"
286,-83.36064,42.530619,"Whole Foods-West Bloomfield,MI","7350 Orchard Lake Road, West Bloomfield,MI 48322, (248) 538-4600|8am to 10pm seven days a week"
287,-93.327489,44.867501000000004,"Whole Foods Market-Edina,MN","7401 France Ave S, Edina,MN 55435, (952) 830-3500|8AM - 10PM - Seven days a week."
288,-93.436,45.091328999999995,"Whole Foods-Maple Grove,MN","12201 Elm Creek Blvd N, Maple Grove,MN 55369, (763) 416-7300|8AM - 10PM - Seven days a week."
289,-93.269269,44.982789000000004,"Whole Foods-Minneapolis,MN","222 Hennepin Avenue, Minneapolis,MN 55401, (612) 313-7100|7AM-10PM (Daily)"
290,-93.32155,44.946869,"Whole Foods Market-Minneapolis,MN","3060 Excelsior Blvd, Minneapolis,MN 55416, (612) 927-8141|8AM to 10PM - Seven days a week"
291,-93.44544300000001,44.973632,"Whole Foods Market-Minnetonka,MN","1001 Plymouth Road, Minnetonka,MN 55305, (952) 797-5600|8AM to 10PM - Seven days a week"
292,-93.16676679999999,44.9466046,"Whole Foods-St Paul,MN","1575 Selby Ave, St Paul,MN 55104, (651) 690-0197|8AM to 10PM. Seven days a week"
293,-92.930196,44.942729,"Whole Foods-Woodbury,MN","305 Radio Drive, Woodbury,MN 55125, (651) 252-3060|8:00am to 9:00pm Seven days a week"
294,-94.58345,39.034420000000004,"Whole Foods-Kansas City,MO","301 E 51st Street, Kansas City,MO 64112, (816) 708-3700|7:00am - 9:00pm Seven days a week"
295,-90.346612,38.627183,"Whole Foods-Saint Louis,MO","1601 S Brentwood Blvd, Saint Louis,MO 63144, (314) 968-7744|Monday - Sunday: 8AM to 10PM"
296,-90.26121429999999,38.641674,"Whole Foods-Saint Louis,MO","4577 West Pine Blvd, Saint Louis,MO 63108, (314) 474-7300|Monday - Sunday: 8AM to 10PM"
297,-90.516513,38.622102000000005,"Whole Foods Market-Town and Country,MO","1160 Town and Country Crossing, Town and Country,MO 63017, (636) 527-1160|Monday - Sunday: 8AM - 9PM"
298,-90.149885,32.354919,"Whole Foods-Jackson,MS","4500 I-55 North Suite 99, Jackson,MS 39211, (601) 608-0405|Monday - Sunday 8am to 9pm! Our Merchant of Vino Wine & Spirits Store is open from 10am to 9pm Mon-Sat."
299,-82.52408,35.58274,"Whole Foods-Asheville,NC","4 South Tunnel Rd, Asheville,NC 28805, (828) 239-9604|Every day: 8 a.m. to 10 p.m."
300,-82.554488,35.601991999999996,"Whole Foods-Asheville,NC","70 Merrimon Ave, Asheville,NC 28801, (828) 254-5440|7:30am to 9pm"
301,-78.777898,35.736574,"Whole Foods-Cary,NC","102B New Waverly Place, Cary,NC 27518, (919) 816-8830|7:30am to 9pm seven days a week"
302,-78.881919,35.833479,"Whole Foods-Cary,NC","5055 Arco Street, Cary,NC 27519, (984) 228-0300|7am-10pm Seven days a week"
303,-79.028049,35.933873999999996,"Whole Foods-Chapel Hill,NC","81 South Elliot Road, Chapel Hill,NC 27514, (919) 968-1983|7 AM to 10 PM seven days a week (store and café)"
304,-80.8453717,35.220645700000006,"Whole Foods-Charlotte,NC","400 East Stonewall St, Charlotte,NC 28202, (704) 969-5950|7:00am - 10:00pm Seven days a week"
305,-80.829738,35.147626,"Whole Foods-Charlotte,NC","6610 Fairview Rd, Charlotte,NC 28210, (980) 213-2400|8 am to 10 pm seven days a week"
306,-80.7676438,35.0536842,"Whole Foods-Charlotte,NC","7221 Waverly Walk Ave, Charlotte,NC 28277, (704) 949-1860|8:00 a.m. to 10:00 p.m. Seven days a week."
307,-78.919915,36.006208,"Whole Foods-Durham,NC","621 Broad Street, Durham,NC 27705, (919) 286-2290|7am to 9pm seven days a week (store and café)"
308,-79.83404200000001,36.086172999999995,"Whole Foods-Greensboro,NC","3202 West Friendly Avenue, Greensboro,NC 27408-7604, (336) 398-2880|8am to 9pm (Monday - Sunday)"
309,-80.8722916,35.44384,"Whole Foods-Huntersville,NC","9129 Sam Furr Rd, Huntersville,NC 28078, (704) 765-3735|8:00 a.m. to 9:00 p.m. Seven days a week."
310,-78.685317,35.801417,"Whole Foods-Raleigh,NC","3540 Wade Ave, Raleigh,NC 27607, (919) 828-5805|7am to 10pm"
311,-78.650237,35.898892,"Whole Foods-Raleigh,NC","8710 Six Forks Rd, Raleigh,NC 27615, (919) 354-0350|7am to 9pm seven days a week"
312,-77.90127,34.213575,"Whole Foods-Wilmington,NC","3804 Oleander Drive, Wilmington,NC 28403, (910) 777-2499|8:00 a.m. to 9:00 p.m. Seven days a week."
313,-80.274997,36.095159,"Whole Foods Market-Winston Salem,NC","41 Miller Street, Winston Salem,NC 27104, (336) 722-9233|7am to 9pm (Monday - Sunday)"
314,-96.639202,40.812812,"Whole Foods-Lincoln,NE","6055 O Street, Lincoln,NE 68510, (402) 486-6000|Monday - Thursday 8am-9pm"
315,-96.069673,41.260782,"Whole Foods-Omaha,NE","10020 Regency Circle, Omaha,NE 68114, (402) 393-1200|8am to 10pm Monday-Saturday"
316,-71.47793929999999,42.9541229,"Whole Foods-Bedford,NH","121 South River Rd, Bedford,NH 03110, (603) 218-1900|8:00am - 10:00pm Seven days a week"
317,-71.49745899999999,42.778808399999996,"Whole Foods-Nashua,NH","255 Amherst Street, Nashua,NH 03063, (603) 318-7550|8:00 a.m. to 10:00 p.m. Seven days a week."
318,-74.56140500000001,40.573445,"Whole Foods-Bound Brook,NJ","319 Chimney Rock Road, Bound Brook,NJ 08805, (732) 584-1960|8:00 am to 10:00 pm. Seven days a week"
319,-75.00843509999999,39.91574,"Whole Foods-Cherry Hill,NJ","1558 North Kings Highway, Cherry Hill,NJ 08034, (856) 651-5271|7:00am - 10:00pm"
320,-74.304885,40.631725,"Whole Foods-Clark,NJ","1255 Raritan Road Unit 150, Clark,NJ 07066, (732) 381-1010|8:00am to 10:00pm Seven Days a Week"
321,-73.9568918,40.9695511,"Whole Foods-Closter,NJ","45 Vervalen Street, Closter,NJ 07624, (201) 367-9099|8:00am - 10:00pm Seven days a week"
322,-73.97398100000001,40.825696,"Whole Foods-Edgewater,NJ","905 River Road, Edgewater,NJ 07020, (201) 941-4000|8am to 10pm seven days a week"
323,-74.405392,40.752974,"Whole Foods Market-Madison,NJ","222 Main St, Madison,NJ 07940, (973) 822-8444|8am to 10pm seven days a week"
324,-74.2486267,40.314220399999996,"Whole Foods-Marlboro,NJ","113 Route 9 South, Marlboro,NJ 07726, (732) 792-5900|8:00 a.m. to 10:00 p.m. Seven days a week."
325,-74.938572,39.907601,"Whole Foods Market-Marlton,NJ","940 Route 73 North, Marlton,NJ 08053, (856) 797-1115|Normal hours: 7am-10pm; 7 days"
326,-74.366607,40.540645,"Whole Foods-Metuchen,NJ","645 Middlesex Avenue, Metuchen,NJ 08840, (732) 515-6180|8:00 am to 10:00 pm Seven Days a Week"
327,-74.222774,40.818139,"Whole Foods-Montclair,NJ","701 Bloomfield Ave, Montclair,NJ 07042, (973) 746-5110|8am to 10pm seven days a week"
328,-74.4886932,40.799125700000005,"Whole Foods Market-Morristown,NJ","110 Washington Street, Morristown,NJ 07960, (973) 385-1900|8:00am to 10:00pm. Seven days a week."
329,-74.17038000000001,40.74054,"Whole Foods-Newark,NJ","633 Broad Street, Newark,NJ 07102, (973) 755-5080|8:00am - 9:00pm Seven days a week"
330,-74.056777,40.915328,"Whole Foods-Paramus,NJ","300 Bergen Town Center, Paramus,NJ 07652, (201) 226-1244|8am to 10pm seven days a week"
331,-74.629349,40.338840000000005,"Whole Foods-Princeton,NJ","3495 US Route 1 South, Princeton,NJ 08540, (609) 799-2919|8am-10pm seven days a week"
332,-74.088685,40.375396,"Whole Foods-Red Bank,NJ","471 State Route 35 North, Red Bank,NJ 07701-5036, (732) 758-1688|8am to 10pm. Seven days a week."
333,-74.122941,40.978879,"Whole Foods-Ridgewood,NJ","44 Godwin Ave, Ridgewood,NJ 07450, (201) 670-0383|8AM to 10PM Seven days a week. Cafe hours 7AM to 9PM."
334,-74.286641,40.717061,"Whole Foods-Vauxhall,NJ","2245 Springfield Ave, Vauxhall,NJ 07088, (908) 688-1455|8am to 10pm seven days a week"
335,-74.0714035,40.1193695,"Whole Foods-Wall,NJ","1933 State Road 35, Wall,NJ 07719, (732) 359-3400|8:00am - 10:00pm Seven days a week"
336,-74.24708199999999,40.804613,"Whole Foods-West Orange,NJ","235 Prospect Ave, West Orange,NJ 07052, (973) 669-3196|8am to 10pm seven days a week"
337,-105.953868,35.102203,"Whole Foods-Albuquerque,NM","2103 Carlisle Boulevard NE, Albuquerque,NM 87110, (505) 260-1366|Open 7am to 10pm"
338,-106.55467900000001,35.146933000000004,"Whole Foods-Albuquerque,NM","5815 Wyoming Blvd NE, Albuquerque,NM 87109, (505) 856-0474|8am to 10pm"
339,-106.604409,35.679588,"Whole Foods-Santa Fe,NM","753 Cerrillos Rd, Santa Fe,NM 87505, (505) 992-1700|Open 7:30am to 10pm"
340,-115.083661,36.021663000000004,"Whole Foods Market-Henderson,NV","100 S Green Valley Pkwy, Henderson,NV 89012, (702) 361-8183|8 A.M. to 10 P.M. Daily"
341,-115.174066,36.067384000000004,"Whole Foods Market-Las Vegas,NV","6689 Las Vegas Blvd, Las Vegas,NV 89119, (702) 589-7711|8 A.M. to 10 P.M. Daily"
342,-115.249284,36.196252,"Whole Foods-Las Vegas,NV","7250 W Lake Mead Blvd, Las Vegas,NV 89128, (702) 942-1500|8 A.M. to 10 P.M. Daily"
343,-115.28833200000001,36.158823,"Whole Foods-Las Vegas,NV","8855 West Charleston Blvd, Las Vegas,NV 89117, (702) 254-8655|8 A.M. to 10 P.M. Daily"
344,-119.78768000000001,39.47358,"Whole Foods-Reno,NV","6139 S Virginia Street, Reno,NV 89502, (775) 852-8023|8:00 am to 10:00 pm. Seven days a week."
345,-73.8197098,42.708602899999995,"Whole Foods-Albany,NY","1425 Central Ave, Albany,NY 12205, (518) 621-5300|8:00 am to 10:00 pm. Seven days a week."
346,-78.816865,42.97935,"Whole Foods-Amherst,NY","3139 Sheridan Dr, Amherst,NY 14226, (716) 398-4502|8:00 am to 10:00 pm. Seven days a week"
347,-73.98875100000001,40.675071,"Whole Foods-Brooklyn,NY","214 3rd Street, Brooklyn,NY 11215, (718) 907-3622|Store Hours: 8 am to 11 pm"
348,-73.959688,40.7160797,"Whole Foods-Brooklyn,NY","238 Bedford Ave, Brooklyn,NY 11249, (718) 734-2321|8:00am - 11:00pm Seven days a week"
349,-73.9782292,40.68662020000001,"Whole Foods 365-Brooklyn,NY","292 Ashland Place, Brooklyn,NY 11217, (718) 290-1010|8:00 a.m. to 11:00 p.m. Seven days a week"
350,-73.75497800000001,41.180754,"Whole Foods-Chappaqua,NY","480 N Bedford Rd, Chappaqua,NY 10514, (914) 340-5130|8am to 10pm. Seven days a week"
351,-73.28412850000001,40.838327,"Whole Foods-Commack,NY","120 Veterans Memorial Hwy [34], Commack,NY 11725, (631) 670-0580|8:00am-10:00pm Seven days a week"
352,-73.534679,40.787358000000005,"Whole Foods-Jericho,NY","429 North Broadway, Jericho,NY 11753-2106, (516) 932-1733|7:30AM to 10PM "
353,-73.125837,40.869602,"Whole Foods-Lake Grove,NY","120 New Moriches Road, Lake Grove,NY 11755, (631) 588-1466|Join us every day"
354,-73.671695,40.796701,"Whole Foods-Manhasset,NY","2101 Northern Blvd, Manhasset,NY 11030, (516) 869-8900|7:30am to 10:00pm"
355,-73.987042,40.766374,"Whole Foods-New York,NY","10 Columbus Circle, New York,NY 10019, (212) 823-9600|7:00am to 11pm Seven days a week"
356,-73.94624,40.80761,"Whole Foods-New York,NY","100 W 125th St, New York,NY 10027, (212) 678-1940|8:00 am to 11:00 pm Seven days a week - Market level / Coffee bar opens at 7:00am 7:00 am - 11:00 pm. Seven days a week."
357,-73.98501,40.75475,"Whole Foods-New York,NY","1095 Avenue of the Americas, New York,NY 10036, (917) 728-5700|7:00am - 11:00pm Seven days a week. News Agency: 6:30am - 11:00pm Daily"
358,-73.9533506,40.7795984,"Whole Foods-New York,NY","1551 3rd Ave, New York,NY 10128, (646) 891-3888|7:00 am - 11:00 pm. Seven days a week."
359,-73.966089,40.759626000000004,"Whole Foods-New York,NY","226 East 57th Street, New York,NY 10022, (646) 497-1222|7:30am to 11pm. Seven days a week."
360,-73.995108,40.74511,"Whole Foods-New York,NY","250 7th Ave, New York,NY 10001, (212) 924-5969|7:00am to 11pm seven days a week"
361,-74.011395,40.715554,"Whole Foods-New York,NY","270 Greenwich Street, New York,NY 10007, (212) 349-6555|7am to 11pm seven days a week"
362,-73.990646,40.73469,"Whole Foods-New York,NY","4 Union Square South, New York,NY 10003, (212) 673-5388|7:00am to 11pm Seven Days a Week"
363,-73.966654,40.79467,"Whole Foods-New York,NY","808 Columbus Avenue, New York,NY 10025, (212) 222-6160|MAIN STORE: 7:30am to 11pm"
364,-73.99239399999999,40.723841,"Whole Foods-New York,NY","95 East Houston St, New York,NY 10002, (212) 420-1320|8:00 a.m to 11:00 p.m Monday-Sunday"
365,-73.675224,40.993099,"Whole Foods-Port Chester,NY","575 Boston Post Road, Port Chester,NY 10573, (914) 708-1985|8:00 am - 10:00 pm Seven days a week."
366,-73.758247,41.028011,"Whole Foods Market-White Plains,NY","110 Bloomingdale Road, White Plains,NY 10605-1503, (914) 288-1300|8:00 am to 10:00 pm Seven days a week"
367,-73.85771109999999,40.9607508,"Whole Foods-Yonkers,NY","1 Ridge Hill Blvd, Yonkers,NY 10710, (914) 378-8090|8am-10pm Daily"
368,-81.57119,41.11099,"Whole Foods 365-Akron,OH","1745 W Market Street, Akron,OH 44313, (330) 615-2100|8:00 a.m. to 9:00 p.m. Seven days a week."
369,-84.44414,39.148706,"Whole Foods-Cincinnati,OH","2693 Edmondson Rd, Cincinnati,OH 45209, (513) 531-8015|8am to 9pm seven days a week"
370,-83.08795699999999,40.095239,"Whole Foods-Columbus,OH","3670 W Dublin-Granville Rd, Columbus,OH 43235, (614) 760-5556|8 am - 10pm seven days a week"
371,-82.91424549999999,40.0482029,"Whole Foods-Columbus,OH","4100 Easton Gateway Drive, Columbus,OH 43219, (614) 536-0570|Sunday-Thursday: 8 am-9 pm Friday & Saturday: 8 am-10 pm"
372,-84.1891826,39.6280188,"Whole Foods-Dayton,OH","1050 Miamisburg Centerville Road, Dayton,OH 45458, (937) 999-6880|Sunday - Thursday: 8am-9pm Friday & Saturday: 8am-10pm"
373,-84.31989200000001,39.30772,"Whole Foods Market-Mason,OH","5805 Deerfield Boulevard, Mason,OH 45040, (513) 398-9358|8:00 am to 10:00 pm Seven Days a Week"
374,-82.984285,39.32740820000001,"Whole Foods-Orange,OH","50 Wall St, Orange,OH 44122, (216) 464-9403|7:00 am to 10:00 pm. Seven days a week"
375,-81.84036009999998,41.4797569,"Whole Foods-Rocky River,OH","19607 Detroit Road, Rocky River,OH 44116, (440) 596-3440|8:00am to 9:00pm Seven days a week"
376,-81.536725,41.501218,"Whole Foods Market-University Heights,OH","13998 Cedar Rd, University Heights,OH 44118, (216) 932-3918|8 AM - 10 PM"
377,-83.052527,40.006871000000004,"Whole Foods-Upper Arlington,OH","1555 W Lane Ave, Upper Arlington,OH 43221, (614) 481-3400|8 AM to 9 PM Daily"
378,-97.529798,35.533718,"Whole Foods-Oklahoma City,OK","6001 N Western Ave, Oklahoma City,OK 73118, (405) 879-3500|8am10pm seven days a week. Coffee Bar/Breakfast open at 7am."
379,-95.973409,36.104421,"Whole Foods-Tulsa,OK","1401 East 41st Street, Tulsa,OK 74105, (918) 712-7555|Open seven days a week"
380,-95.922586,36.031009999999995,"Whole Foods-Tulsa,OK","9136 S Yale Ave, Tulsa,OK 74137, (918) 879-0493|8am10pm seven days a week. Coffee bar and Juice Garage open at 7am."
381,-79.333157,43.857352,"Whole Foods-Markham,ON","3997 Highway 7, Markham,ON L3R 5M6, (905) 474-4900|Store Hours: Monday to Sunday 9am - 9pm"
382,-79.644976,43.594606,"Whole Foods-Mississauga,ON","155 Square One Drive, Mississauga,ON L5B 0E2, (905) 275-9393|Monday to Friday 8am-10pm"
383,-79.679121,43.455966,"Whole Foods-Oakville,ON","301 Cornwall Rd, Oakville,ON L6J 7Z5, (905) 849-8400|Store Hours: Monday to Sunday: 8am-9pm"
384,-75.6860085,45.3993083,"Whole Foods-Ottawa,ON","951 Bank Street, Ottawa,ON K1S 3W7, (613) 565-7150|Store Hours: 9am - 9pm. Seven days a week"
385,-79.37810999999999,43.714290000000005,"Whole Foods-Toronto,ON","1860 Bayview Ave, Toronto,ON M4C 3E4, (416) 484-0090|9:00 am to 9:00 pm 7 days a week."
386,-79.41038,43.76082,"Whole Foods-Toronto,ON","4771 Yonge Street, Toronto,ON M2N 5M5, (416) 730-1100|Monday to Sunday 8am-10pm Cafe/Diner: 7:30am-9pm"
387,-79.395354,43.672212,"Whole Foods-Toronto,ON","87 Avenue Rd, Toronto,ON M5R 3R9, (416) 944-0500|Market Hours: Mon-Fri 9am-10pm"
388,-121.26606799999999,44.055059,"Whole Foods-Bend,OR","2610 Highway 20, Bend,OR 97701-6261, (541) 389-0151|8 a.m. to 9 p.m. seven days a week"
389,-123.08757079999998,44.0499649,"Whole Foods-Eugene,OR","353 E Broadway, Eugene,OR 97401, (541) 434-8820|8:00am - 10:00pm Seven days a week."
390,-122.75208899999998,45.534321000000006,"Whole Foods Market-Hillsboro,OR","19440 NW Cornell Rd, Hillsboro,OR 97124, (503) 645-9200|Open Daily"
391,-122.6637053,45.4154051,"Whole Foods 365-Lake Oswego,OR","11 S State St, Lake Oswego,OR 97034, (503) 782-4672|8:00 a.m. to 9:00 p.m. Seven days a week."
392,-122.683361,45.523548999999996,"Whole Foods Market-Portland,OR","1210 NW Couch St, Portland,OR 97209, (503) 525-4343|7am to 10pm"
393,-122.618771,45.523012,"Whole Foods Market-Portland,OR","2825 East Burnside St, Portland,OR 97214, (503) 232-6601|7am to 10pm Daily"
394,-122.650589,45.548541,"Whole Foods-Portland,OR","3535 NE 15th Ave, Portland,OR 97212, (503) 288-3414|7am to 10pm Daily"
395,-122.877228,45.536818,"Whole Foods-Portland,OR","4301 NE Sandy Blvd, Portland,OR 97213, (503) 284-2644|7am to 10pm Daily"
396,-122.8020678,45.443901600000004,"Whole Foods Market-Tigard,OR","12220 SW Scholls Ferry Road, Tigard,OR 97223, (971) 371-7000|Open Daily"
397,-122.63686000000001,45.394541,"Whole Foods Market-Tigard,OR","7380 SW Bridgeport Rd, Tigard,OR 97224, (503) 639-6500|Open Daily"
398,-75.5674896,40.565780600000004,"Whole Foods-Allentown,PA","750 N Krocks Road, Allentown,PA 18106, (484) 506-2159|7:00 AM-10:00 PM"
399,-75.62876,40.031279999999995,"Whole Foods-Exton,PA","175 N Pottstown Pike, Exton,PA 19341, (610) 423-6360|7:00am - 10:00pm Seven days a week"
400,-75.54404,39.865826,"Whole Foods-Glen Mills,PA","475 Wilmington, Glen Mills,PA 19342, (610) 358-1133|7am to 10pm seven days a week"
401,-75.120453,40.106229,"Whole Foods-Jenkintown,PA","1575 The Fairway, Jenkintown,PA 19046, (215) 481-0800|8am to 9pm daily"
402,-76.3142795,40.0639405,"Whole Foods-Lancaster,PA","1563 Fruitville Pike, Lancaster,PA 17601, (717) 984-5700|8:00am - 9:00pm seven days a week"
403,-75.4028363,39.987289700000005,"Whole Foods-Newton Square,PA","3737 West Chester Pike, Newtown Square,PA 19073, (610) 848-7200|7am to 10pm. Seven days a week"
404,-75.1741259,39.9627391,"Whole Foods-Philadelphia,PA","2101 Pennsylvania Avenue, Philadelphia,PA 19130, (215) 557-0015|7 am - 11 pm Seven days a week; Allegro Coffee bar opens at 6 am"
405,-75.157937,39.942755,"Whole Foods-Philadelphia,PA","929 South Street, Philadelphia,PA 19147, (215) 733-9788|7am to 10pm seven days a week"
406,-79.928449,40.458822,"Whole Foods-Pittsburgh,PA","5880 Centre Ave, Pittsburgh,PA 15206, (412) 441-7960|8am-10pm daily"
407,-75.283734,40.115334000000004,"Whole Foods Market-Plymouth Meeting,PA","500 W Germantown Pike, Plymouth Meeting,PA 19462, (610) 832-0010|7am to 10pm Daily"
408,-75.228061,40.188292,"Whole Foods-Spring House,PA","1111 North Bethlehem Pike, Spring House,PA 19477, (215) 646-6300|7:00am - 10:00pm Seven days a week"
409,-80.0728378,40.3349915,"Whole Foods-Upper St  Clair,PA","111 Siena Drive, Upper St Clair,PA 15241, (412) 409-4550|8 am - 10 pm daily"
410,-75.412414,40.048173999999996,"Whole Foods-Wayne,PA","821 W Lancaster Ave, Wayne,PA 19087, (610) 688-9400|8a to 9p. Seven days a week"
411,-80.053394,40.613616,"Whole Foods-Wexford,PA","10576 Perry Highway, Wexford,PA 15090, (724) 940-6100|8am-9pm daily"
412,-75.2752753,40.0017082,"Whole Foods-Wynnewood,PA","15 East Wynnewood Rd, Wynnewood,PA 19096, (610) 896-3737|8 am - 10 pm"
413,-71.457116,41.755672,"Whole Foods-Cranston,RI","151 Sockanosset Cross Road, Cranston,RI 02920, (401) 942-7600|8am to 9pm seven days a week"
414,-71.386034,41.828065,"Whole Foods-Providence,RI","261 Waterman St, Providence,RI 02906, (401) 272-1690|8am to 9pm Seven days a week"
415,-71.409309,41.83717,"Whole Foods-Providence,RI","601 N Main St, Providence,RI 02904, (401) 621-5990|8am to 10pm seven days a week"
416,-79.9960689,32.7837877,"Whole Foods-Charleston,SC","1125 Savannah Highway, Charleston,SC 29407, (843) 329-6540|7:00am - 10:00pm Seven days a week"
417,-80.975499,33.992745,"Whole Foods-Columbia,SC","702 Cross Hill Rd + Fort Jackson Blvd, Columbia,SC 29205-2084, (803) 509-6700|8:00 a.m. to 9:00 p.m. daily"
418,-82.300923,34.825852000000005,"Whole Foods-Greenville,SC","1140 Woodruff Road, Greenville,SC 29607, (864) 335-2300|8:00am-10:00pm Seven days a week."
419,-80.717475,32.186515,"Whole Foods Market-Hilton Head Island,SC","50 Shelter Cove Lane, Hilton Head Island,SC 29928, (843) 842-0700|8:00 a.m. to 9:00 p.m. Seven days a week."
420,-79.88979599999999,32.802079,"Whole Foods-Mount Pleasant,SC","923 Houston Northcutt Blvd, Mount Pleasant,SC 29464, (843) 971-7240|8am to 9pm seven days a week"
421,-85.314224,35.06263,"Whole Foods Market-Chattanooga,TN","301 Manufacturers Rd, Chattanooga,TN 37405, (423) 702-7300|Monday - Saturday 7:30 a.m.- 9:00 p.m. Sunday 8:30 a.m. - 9:00 p.m."
422,-89.89459599999999,35.93483,"Whole Foods-Franklin,TN","1566 West McEwen Drive, Franklin,TN 37067, (615) 550-5660|Monday-Saturday: 7am to 10pm & Sunday: 8am to 9pm"
423,-89.8348312,35.097728700000005,"Whole Foods-Germantown,TN","7825 US Highway 72, Germantown,TN 38138-3906, (901) 896-3245|8:00am to 9:00pm"
424,-84.0154633,35.9342562,"Whole Foods-Knoxville,TN","6730 Papermill Drive, Knoxville,TN 37919, (865) 291-6400|8:00 am to 9:00 pm"
425,-89.89433290000001,35.11357879999999,"Whole Foods-Memphis,TN","5014 Poplar Avenue, Memphis,TN 38117, (901) 969-4368|7:30 am-10:00 pm Monday - Saturday"
426,-86.825271,36.103429,"Whole Foods-Nashville,TN","4021 Hillsboro Pike, Nashville,TN 37215, (615) 440-5100|Monday-Sunday 8 AM-10 PM"
427,-97.754274,32.953286999999996,"Whole Foods-Addison,TX","5100 Belt Line Road, Addison,TX 75254, (214) 854-3334|7am10pm seven days a week"
428,-96.752078,32.765687,"Whole Foods-Arlington,TX","801 East Lamar Blvd, Arlington,TX 76011, (817) 461-9362|7:30am10pm seven days a week"
429,-97.937587,30.406211,"Whole Foods-Austin,TX","11920 Domain Drive, Austin,TX 78758, (512) 831-3981|8am10pm every day"
430,-96.79518900000001,30.221646000000003,"Whole Foods-Austin,TX","4301 W William Cannon, Austin,TX 78749, (512) 358-2460|8am10pm seven days a week"
431,-95.623349,30.270607000000002,"Whole Foods-Austin,TX","525 N Lamar Blvd, Austin,TX 78703, (512) 542-2200|7am to 10pm seven days a week. Coffee bar and taco station open at 6am."
432,-95.398112,30.387992999999998,"Whole Foods-Austin,TX","9607 Research Blvd, Austin,TX 78759, (512) 345-5003|8am to 10pm seven days a week"
433,-95.497099,30.307817,"Whole Foods-Bee Cave,TX","12601 Hill Country Blvd, Bee Cave,TX 78738, (512) 206-2730|8am to 10pm seven days a week"
434,-97.819001,30.533623,"Whole Foods 365-Cedar Park,TX","5001 183 Toll Road, Cedar Park,TX 78613, (512) 690-2605|8:00 a.m. to 9:00 p.m. Seven days a week."
435,-97.155632,32.8792419,"Whole Foods-Colleyville,TX","4801 Colleyville Blvd, Colleyville,TX 76034, (817) 918-3821|8am to 10pm every day. Coffee/juice bar open until 8pm."
436,-95.441234,32.907737,"Whole Foods-Dallas,TX","11700 Preston Rd, Dallas,TX 75230, (214) 361-8887|7am10pm"
437,-97.84065600000001,32.815725,"Whole Foods Market-Dallas,TX","2118 Abrams Road, Dallas,TX 75214, (214) 824-1744|7am10pm. Seven days a week."
438,-96.8019808,32.795383,"Whole Foods-Dallas,TX","2510 McKinney Ave, Dallas,TX 75201, (469) 518-5814|7am10pm seven days a week"
439,-96.81539000000001,32.87187,"Whole Foods-Dallas,TX","8190 Park Lane, Dallas,TX 75231, (214) 342-4850|7am to 10pm. Seven days a week."
440,-106.54852690000001,31.835090500000003,"Whole Foods-El Paso,TX","100 Pitt Street, El Paso,TX 79912, (915) 236-1420|8am-10:00pm Seven days a week."
441,-97.743227,33.131104,"Whole Foods-Fairview,TX","105 Stacy Road, Fairview,TX 75069, (972) 549-4090|7:30am-10pm seven days a week"
442,-97.3838959,32.7006721,"Whole Foods-Fort Worth,TX","3720 Vision Drive, Fort Worth,TX 76109, (682) 316-8040|8am10pm / Seven days a week"
443,-98.510924,32.820519,"Whole Foods-Highland Park,TX","4100 Lomo Alto Dr, Highland Park,TX 75219, (214) 520-7993|7am to 10pm"
444,-97.08461590000002,33.0731197,"Whole Foods-Highland Village,TX","4041 Waller Creek, Highland Village,TX 75077, (972) 538-9710|8am10pm seven days a week. Coffee & juice bars open at 7am."
445,-95.3985,29.8139,"Whole Foods 365-Houston,TX","101 N Loop W, Houston,TX 77018, (713) 369-800|7:00am  9:00pm Seven days a week"
446,-95.56222530000001,29.9990196,"Whole Foods-Houston,TX","10133 Louetta Road, Houston,TX 77070, (281) 803-6396|7am10pm seven days a week"
447,-95.5708563,29.7366348,"Whole Foods-Houston,TX","11041 Westheimer Rd, Houston,TX 77042, (713) 784-7776|7:30am to 10pm. Every day"
448,-95.50027469999999,29.752388,"Whole Foods-Houston,TX","1407 South Voss Rd, Houston,TX 77057, (713) 789-4477|7am to 10pm. Every day"
449,-95.4614141,29.7501571,"Whole Foods-Houston,TX","1700 Post Oak Blvd, Houston,TX 77056, (713) 346-0537|7am10pm seven days a week"
450,-98.479774,29.739032,"Whole Foods-Houston,TX","2955 Kirby Dr, Houston,TX 77098, (713) 520-1937|7am to 10pm every day"
451,-96.650924,29.706182000000002,"Whole Foods-Houston,TX","4004 Bellaire Blvd, Houston,TX 77025, (713) 667-4090|7am to 10pm every day"
452,-97.099182,29.759548,"Whole Foods-Houston,TX","701 Waugh Drive, Houston,TX 77019, (713) 284-1260|7am to 10pm seven days a week"
453,-96.96027,32.901662,"Whole Foods-Irving,TX","6741 N MacArthur Blvd, Irving,TX 75039, (469) 845-8001|7:00am - 10:00pm Seven days a week"
454,-95.573018,29.712956,"Whole Foods-Katy,TX","6601 S Fry Road, Katy,TX 77494, (281) 769-5670|7am10pm 7 days a week; coffee bar opens at 7am Katy Station Opens at 12 pm Daily"
455,-96.765899,33.029391,"Whole Foods-Plano,TX","2201 Preston Road, Plano,TX 75093, (972) 612-6729|7am10pm seven days a week"
456,-96.69891559999999,32.9973547,"Whole Foods-Richardson,TX","1411 E Renner Road, Richardson,TX 75082, (214) 273-0902|8am10pm seven days a week"
457,-95.770708,29.613418,"Whole Foods-San Antonio,TX","18403 Blanco Road, San Antonio,TX 78258, (210) 408-3110|Coffee bar open 7am8pm; Store open 8am10pm seven days a week; Bar Blanco open 3pm9:30pm"
458,-96.821136,29.493716,"Whole Foods-San Antonio,TX","255 E. Basse Rd, San Antonio,TX 78209, (210) 826-4676|8am10pm seven days a week"
459,-97.720267,29.59822,"Whole Foods-Sugar Land,TX","15900 Southwest Freeway, Sugar Land,TX 77478, (281) 491-5577|7am to 10pm seven days a week"
460,-95.4557724,30.157520299999998,"Whole Foods-The Woodlands,TX","1925 Hughes Landing Blvd, The Woodlands,TX 77380, (832) 246-5600|7am10pm. Seven days a week."
461,-111.83423700000002,40.625918,"Whole Foods-Cottonwood Heights,UT","6930 S Highland Drive, Cottonwood Heights,UT 84121, (801) 733-9455|Open 8am-10pm"
462,-111.543122,40.72094,"Whole Foods-Park City,UT","6598 N Lanemark  Dr, Park City,UT 84098, (435) 575-0200|Open 7am-10pm"
463,-111.85834799999999,40.723448,"Whole Foods Market-Salt Lake City,UT","1131 E Wilmington Ave, Salt Lake City,UT 84106, (801) 359-7913|Open 7:30am to 10pm"
464,-111.87114,40.757494,"Whole Foods-Salt Lake City,UT","544 South 700 East, Salt Lake City,UT 84102, (801) 924-9060|Open 7am to 10pm"
465,-77.059624,38.804246,"Whole Foods-Alexandria,VA","1700 Duke St, Alexandria,VA 22314, (703) 706-0891|7am to 10pm"
466,-77.090769,38.889522,"Whole Foods-Arlington,VA","2700 Wilson Blvd, Arlington,VA 22201, (703) 527-6596|7am to 10:30pm seven days a week"
467,-77.05486540000001,38.8628872,"Whole Foods-Arlington,VA","520 12th St South, Arlington,VA 22202, (571) 777-3948|7 am - 10 pm"
468,-77.4795685,39.0415306,"Whole Foods-Ashburn,VA","19800 Belmont Chase Drive, Ashburn,VA 20147, (571) 223-4440|7:00am to 10:00pm Seven days a week"
469,-78.49036600000001,38.059962,"Whole Foods-Charlottesville,VA","1797 Hydraulic Road, Charlottesville,VA 22901, (434) 973-4900|7:00am to 10:00pm. Seven days a week."
470,-77.376652,38.858435,"Whole Foods-Fairfax,VA","4501 Market Commons Dr, Fairfax,VA 22033, (703) 222-2058|8am to 10pm seven days a week"
471,-77.204086,38.903038,"Whole Foods Market-Falls Church,VA","7511 Leesburg Pike, Falls Church,VA 22043, (703) 448-1600|Regular Hours: 8am-10pm"
472,-77.600104,37.648609,"Whole Foods-Glen Allen,VA","11173 West Broad Street, Glen Allen,VA 23060, (804) 364-4050|7am to 10pm seven days a week."
473,-76.489654,37.102607,"Whole Foods-Newport News,VA","12080 Jefferson Ave, Newport News,VA 23606, (757) 947-2460|8:00 a.m. to 10:00 p.m. Seven days a week."
474,-77.349078,38.95163,"Whole Foods-Reston,VA","11660 Plaza America Dr, Reston,VA 20190, (703) 736-0600|Monday thru Friday 7:30AM - 9PM Saturday & Sunday 8AM - 9PM"
475,-77.233997,38.779264000000005,"Whole Foods Market-Springfield,VA","8402 Old Keene Mill Rd, Springfield,VA 22152, (703) 644-2500|8am to 9pm seven days a week"
476,-77.263674,38.902595,"Whole Foods-Vienna,VA","143 Maple Ave East, Vienna,VA 22180, (703) 319-2000|Open 7:30am to 9:30pm. Seven days a week. Brew & Brau Pub Hours: 11am-9:30pm Last call for food at 8:30pm and alcohol 9:00pm."
477,-76.028025,36.850142,"Whole Foods-Virginia Beach,VA","1800 Laskin Road, Virginia Beach,VA 23454, (757) 422-0444|7 am to 9 pm Seven days a week."
478,-122.185534,47.618072,"Whole Foods-Bellevue,WA","888 116th Ave NE, Bellevue,WA 98004, (425) 462-1400|Store Hours 7am - 10pm"
479,-122.46167759999999,48.7438354,"Whole Foods-Bellingham,WA","1030 Lakeway Drive, Bellingham,WA 98229, (360) 714-6820|8:00 am to 10:00 pm. Seven days a week."
480,-122.17962309999999,47.7105043,"Whole Foods-Kirkland,WA","12501 120th Ave NE, Kirkland,WA 98034, (425) 979-3301|8:00 am to 10:00 pm. Seven days a week"
481,-122.2726669,47.8198967,"Whole Foods-Lynnwood,WA","2800 196th St SW, Lynnwood,WA 98036, (425) 775-1320|Store Hours 7am - 10pm"
482,-122.10086899999999,47.666515000000004,"Whole Foods-Redmond,WA","17991 NE Redmond Way, Redmond,WA 98052, (425) 881-2600|Store Hours 7am - 10pm"
483,-122.32133999999999,47.61141,"Whole Foods-Seattle,WA","1001 Broadway, Seattle,WA 98122, (206) 802-3720|7:00am - 10:00pm Seven days a week"
484,-122.31701499999998,47.675107000000004,"Whole Foods-Seattle,WA","1026 NE 64th Street, Seattle,WA 98115, (206) 985-1500|Store Hours 7am - 10pm"
485,-122.37713000000001,47.637174,"Whole Foods-Seattle,WA","2001 15th Avenue W, Seattle,WA 98119, (206) 352-5440|Store Hours 7am - 10pm (Coffee Bar Opens 6am)"
486,-122.33841670000001,47.6183689,"Whole Foods-Seattle,WA","2210 Westlake Ave, Seattle,WA 98121, (206) 621-9700|7:00am - 10:00pm Seven days a week"
487,-122.53623200000001,47.227390299999996,"Whole Foods-University Place,WA","3515 Bridgeport Way West, University Place,WA 98466, (253) 534-4500|8:00 am to 10:00 pm. Seven days a week."
488,-122.50738700000001,45.615538,"Whole Foods-Vancouver,WA","815 Southeast 160th Avenue, Vancouver,WA 98683, (360) 253-4082|8am - 10pm Daily"
489,-89.44381899999999,43.0751,"Whole Foods-Madison,WI","3313 University Ave, Madison,WI 53705, (608) 233-9566|7:30am-10pm Mon-Sun"
490,-87.883706,43.060373999999996,"Whole Foods-Milwaukee,WI","2305 N Prospect Ave, Milwaukee,WI 53211, (414) 223-1500|8am to 10pm seven days a week."
491,-88.0517225,43.0748096,"Whole Foods-Wauwatosa,WI","11100 W Burleigh Street, Wauwatosa,WI 53222, (414) 808-3600|Store Hours 9:00am-9:00pm"
492,-86.752554,33.460451,"Whole Foods-Birmingham,AL","3100 Cahaba Village Plaza, Birmingham,AL 35243, (205) 912-8400|8am to 10pm Monday - Saturday"